{
  "type": "FeatureCollection",
  "features": [
    {
      "type": "Feature",
      "id": "node/2768081421",
      "properties": {
        "timestamp": "2014-04-04T19:04:32Z",
        "version": 1,
        "changeset": 21501611,
        "addr:city": "goianesia go",
        "addr:street": "Avenida Pará",
        "name": "hotel asa delta",
        "tourism": "hotel",
        "id": "node/2768081421"
      },
      "geometry": {
        "type": "Point",
        "coordinates": [
          -49.1174622,
          -15.3182406
        ]
      }
    },
    {
      "type": "Feature",
      "id": "node/2768081422",
      "properties": {
        "timestamp": "2014-04-04T23:54:35Z",
        "version": 2,
        "changeset": 21505557,
        "name": "hotel rodoviario",
        "tourism": "hotel",
        "id": "node/2768081422"
      },
      "geometry": {
        "type": "Point",
        "coordinates": [
          -49.1166169,
          -15.3196841
        ]
      }
    },
    {
      "type": "Feature",
      "id": "node/2768081423",
      "properties": {
        "timestamp": "2024-02-24T19:02:37Z",
        "version": 2,
        "changeset": 147867520,
        "addr:housenumber": "330",
        "addr:postcode": "76380000",
        "addr:street": "Rua 28 Oeste",
        "name": "Hotel Goiatuba",
        "tourism": "hotel",
        "id": "node/2768081423"
      },
      "geometry": {
        "type": "Point",
        "coordinates": [
          -49.1179112,
          -15.319361
        ]
      }
    },
    {
      "type": "Feature",
      "id": "node/2768093848",
      "properties": {
        "timestamp": "2014-04-04T19:07:33Z",
        "version": 1,
        "changeset": 21501676,
        "addr:city": "goianesia go",
        "addr:housenumber": "343",
        "addr:postcode": "7638000",
        "addr:street": "Avenida Goiás",
        "name": "hotel san marino",
        "tourism": "hotel",
        "id": "node/2768093848"
      },
      "geometry": {
        "type": "Point",
        "coordinates": [
          -49.1171755,
          -15.3241444
        ]
      }
    },
    {
      "type": "Feature",
      "id": "node/2768116626",
      "properties": {
        "timestamp": "2014-04-04T19:11:59Z",
        "version": 1,
        "changeset": 21501764,
        "addr:city": "goianesia go",
        "addr:housenumber": "471",
        "addr:postcode": "76380000",
        "addr:street": "Avenida Goiás",
        "name": "hotel planaltos",
        "tourism": "hotel",
        "id": "node/2768116626"
      },
      "geometry": {
        "type": "Point",
        "coordinates": [
          -49.117193,
          -15.3335379
        ]
      }
    },
    {
      "type": "Feature",
      "id": "node/2892616835",
      "properties": {
        "timestamp": "2016-08-11T15:26:07Z",
        "version": 4,
        "changeset": 41391361,
        "name": "confidence motel",
        "tourism": "hotel",
        "id": "node/2892616835"
      },
      "geometry": {
        "type": "Point",
        "coordinates": [
          -49.0982291,
          -15.3065439
        ]
      }
    },
    {
      "type": "Feature",
      "id": "node/2892617769",
      "properties": {
        "timestamp": "2014-06-01T00:51:23Z",
        "version": 1,
        "changeset": 22665377,
        "name": "weekend motel",
        "tourism": "hotel",
        "id": "node/2892617769"
      },
      "geometry": {
        "type": "Point",
        "coordinates": [
          -49.1310856,
          -15.3892285
        ]
      }
    },
    {
      "type": "Feature",
      "id": "node/2892618432",
      "properties": {
        "timestamp": "2014-06-01T00:53:25Z",
        "version": 1,
        "changeset": 22665389,
        "name": "neto motel",
        "tourism": "hotel",
        "id": "node/2892618432"
      },
      "geometry": {
        "type": "Point",
        "coordinates": [
          -49.1104865,
          -15.3417482
        ]
      }
    },
    {
      "type": "Feature",
      "id": "node/2892621031",
      "properties": {
        "timestamp": "2014-06-01T00:56:22Z",
        "version": 1,
        "changeset": 22665405,
        "name": "ribeiro hotel",
        "tourism": "hotel",
        "id": "node/2892621031"
      },
      "geometry": {
        "type": "Point",
        "coordinates": [
          -49.1082131,
          -15.3211629
        ]
      }
    },
    {
      "type": "Feature",
      "id": "node/2892624930",
      "properties": {
        "timestamp": "2014-06-01T01:00:46Z",
        "version": 1,
        "changeset": 22665432,
        "name": "nuna hotel",
        "tourism": "hotel",
        "id": "node/2892624930"
      },
      "geometry": {
        "type": "Point",
        "coordinates": [
          -49.1222293,
          -15.3135478
        ]
      }
    },
    {
      "type": "Feature",
      "id": "node/4371364419",
      "properties": {
        "timestamp": "2016-08-28T15:10:17Z",
        "version": 1,
        "changeset": 41757810,
        "name": "kamur",
        "tourism": "hotel",
        "id": "node/4371364419"
      },
      "geometry": {
        "type": "Point",
        "coordinates": [
          -49.1172301,
          -15.339739
        ]
      }
    }
  ]
}
