{
  "type": "FeatureCollection",
  "features": [
    {
      "type": "Feature",
      "id": "node/7352028192",
      "properties": {
        "timestamp": "2020-03-31T18:04:17Z",
        "version": 1,
        "changeset": 82885648,
        "amenity": "pharmacy",
        "dispensing": "yes",
        "healthcare": "pharmacy",
        "name": "Farmácia Menino Jesus",
        "id": "node/7352028192"
      },
      "geometry": {
        "type": "Point",
        "coordinates": [
          -40.2651792,
          -7.7610252
        ]
      }
    },
    {
      "type": "Feature",
      "id": "node/7352028193",
      "properties": {
        "timestamp": "2020-03-31T18:04:17Z",
        "version": 1,
        "changeset": 82885648,
        "amenity": "pharmacy",
        "dispensing": "yes",
        "healthcare": "pharmacy",
        "name": "Farmácia de Mauricio",
        "id": "node/7352028193"
      },
      "geometry": {
        "type": "Point",
        "coordinates": [
          -40.2649606,
          -7.7608905
        ]
      }
    },
    {
      "type": "Feature",
      "id": "node/7602589895",
      "properties": {
        "timestamp": "2020-06-08T11:15:28Z",
        "version": 1,
        "changeset": 86351449,
        "amenity": "pharmacy",
        "name": "Fermaria Moderna",
        "id": "node/7602589895"
      },
      "geometry": {
        "type": "Point",
        "coordinates": [
          -40.2651132,
          -7.7608391
        ]
      }
    },
    {
      "type": "Feature",
      "id": "node/7602590300",
      "properties": {
        "timestamp": "2020-06-08T11:15:29Z",
        "version": 1,
        "changeset": 86351449,
        "amenity": "pharmacy",
        "name": "Farmácia Modesto",
        "id": "node/7602590300"
      },
      "geometry": {
        "type": "Point",
        "coordinates": [
          -40.2649832,
          -7.7609413
        ]
      }
    },
    {
      "type": "Feature",
      "id": "node/7602591787",
      "properties": {
        "timestamp": "2020-06-08T11:15:31Z",
        "version": 1,
        "changeset": 86351449,
        "amenity": "pharmacy",
        "name": "Posto de Medicamento Pague Menos",
        "id": "node/7602591787"
      },
      "geometry": {
        "type": "Point",
        "coordinates": [
          -40.2647735,
          -7.761035
        ]
      }
    },
    {
      "type": "Feature",
      "id": "node/7670794486",
      "properties": {
        "timestamp": "2020-06-30T14:21:23Z",
        "version": 1,
        "changeset": 87353450,
        "amenity": "pharmacy",
        "name": "Farma Santa Clara",
        "id": "node/7670794486"
      },
      "geometry": {
        "type": "Point",
        "coordinates": [
          -40.3254682,
          -7.70852
        ]
      }
    },
    {
      "type": "Feature",
      "id": "node/7670828088",
      "properties": {
        "timestamp": "2020-06-30T14:41:31Z",
        "version": 1,
        "changeset": 87354194,
        "amenity": "pharmacy",
        "name": "Farma Center",
        "id": "node/7670828088"
      },
      "geometry": {
        "type": "Point",
        "coordinates": [
          -40.2693936,
          -7.7591651
        ]
      }
    },
    {
      "type": "Feature",
      "id": "node/7670829285",
      "properties": {
        "timestamp": "2020-06-30T14:32:38Z",
        "version": 1,
        "changeset": 87353887,
        "amenity": "pharmacy",
        "name": "Posti de Medicento Agatha Farma",
        "id": "node/7670829285"
      },
      "geometry": {
        "type": "Point",
        "coordinates": [
          -40.2669365,
          -7.7599304
        ]
      }
    },
    {
      "type": "Feature",
      "id": "node/7671665585",
      "properties": {
        "timestamp": "2020-06-30T19:14:06Z",
        "version": 1,
        "changeset": 87363671,
        "amenity": "pharmacy",
        "name": "Bela Farma",
        "id": "node/7671665585"
      },
      "geometry": {
        "type": "Point",
        "coordinates": [
          -40.2650572,
          -7.7618013
        ]
      }
    }
  ]
}
