{
  "type": "FeatureCollection",
  "features": [
    {
      "type": "Feature",
      "id": "way/1007784975",
      "properties": {
        "timestamp": "2021-11-30T18:47:12Z",
        "version": 1,
        "changeset": 114414304,
        "amenity": "school",
        "name": "Em Joaquim Inacio Serra",
        "id": "way/1007784975"
      },
      "geometry": {
        "type": "Polygon",
        "coordinates": [
          [
            [
              -45.0340418,
              -3.1015015
            ],
            [
              -45.0343854,
              -3.1014681
            ],
            [
              -45.0345916,
              -3.1018929
            ],
            [
              -45.0340957,
              -3.1019411
            ],
            [
              -45.0340418,
              -3.1015015
            ]
          ]
        ]
      }
    },
    {
      "type": "Feature",
      "id": "way/1009301486",
      "properties": {
        "timestamp": "2021-12-05T13:34:12Z",
        "version": 1,
        "changeset": 114582218,
        "amenity": "school",
        "name": "Centro De Ensino Aniceto Mariano Costa",
        "id": "way/1009301486"
      },
      "geometry": {
        "type": "Polygon",
        "coordinates": [
          [
            [
              -45.0348716,
              -3.1066609
            ],
            [
              -45.0346561,
              -3.1072472
            ],
            [
              -45.0340126,
              -3.1070113
            ],
            [
              -45.0342282,
              -3.106425
            ],
            [
              -45.0348716,
              -3.1066609
            ]
          ]
        ]
      }
    },
    {
      "type": "Feature",
      "id": "way/1010814543",
      "properties": {
        "timestamp": "2021-12-09T22:59:42Z",
        "version": 1,
        "changeset": 114762897,
        "amenity": "school",
        "name": "Escola Municipal Dr José Conceição Amaral",
        "id": "way/1010814543"
      },
      "geometry": {
        "type": "Polygon",
        "coordinates": [
          [
            [
              -45.0379384,
              -3.1081139
            ],
            [
              -45.037793,
              -3.1085052
            ],
            [
              -45.037235,
              -3.1082619
            ],
            [
              -45.0374123,
              -3.1078665
            ],
            [
              -45.0379384,
              -3.1081139
            ]
          ]
        ]
      }
    },
    {
      "type": "Feature",
      "id": "node/4568534090",
      "properties": {
        "timestamp": "2016-12-23T11:08:39Z",
        "version": 1,
        "changeset": 44618055,
        "addr:street": "avenida",
        "amenity": "school",
        "name": "Cema",
        "name:en": "Cema",
        "name:pt": "Cema",
        "id": "node/4568534090"
      },
      "geometry": {
        "type": "Point",
        "coordinates": [
          -45.0311246,
          -3.098611
        ]
      }
    },
    {
      "type": "Feature",
      "id": "node/4839262922",
      "properties": {
        "timestamp": "2017-05-06T23:53:12Z",
        "version": 1,
        "changeset": 48463856,
        "amenity": "school",
        "name": "Ieasc",
        "name:en": "Ieasc",
        "name:pt": "Ieasc",
        "id": "node/4839262922"
      },
      "geometry": {
        "type": "Point",
        "coordinates": [
          -45.0330499,
          -3.1028989
        ]
      }
    },
    {
      "type": "Feature",
      "id": "node/9032489276",
      "properties": {
        "timestamp": "2021-08-24T15:09:12Z",
        "version": 1,
        "changeset": 110179999,
        "amenity": "school",
        "name": "Em Santa Rosa",
        "id": "node/9032489276"
      },
      "geometry": {
        "type": "Point",
        "coordinates": [
          -45.0252812,
          -3.1393765
        ]
      }
    },
    {
      "type": "Feature",
      "id": "node/9032805672",
      "properties": {
        "timestamp": "2021-08-24T17:12:47Z",
        "version": 1,
        "changeset": 110185910,
        "amenity": "school",
        "name": "Em Evandro Sarney Costa",
        "id": "node/9032805672"
      },
      "geometry": {
        "type": "Point",
        "coordinates": [
          -44.9712695,
          -3.1540234
        ]
      }
    },
    {
      "type": "Feature",
      "id": "node/9033284745",
      "properties": {
        "timestamp": "2021-08-24T21:07:38Z",
        "version": 1,
        "changeset": 110194078,
        "amenity": "school",
        "name": "Em Benedito José Borges",
        "id": "node/9033284745"
      },
      "geometry": {
        "type": "Point",
        "coordinates": [
          -44.9259643,
          -3.1136764
        ]
      }
    },
    {
      "type": "Feature",
      "id": "node/9038890953",
      "properties": {
        "timestamp": "2021-08-26T20:09:26Z",
        "version": 1,
        "changeset": 110306258,
        "amenity": "school",
        "name": "Escola Municipal Dom Pedro I",
        "id": "node/9038890953"
      },
      "geometry": {
        "type": "Point",
        "coordinates": [
          -45.0022919,
          -3.1503021
        ]
      }
    },
    {
      "type": "Feature",
      "id": "node/9039038667",
      "properties": {
        "timestamp": "2021-08-26T22:02:16Z",
        "version": 1,
        "changeset": 110309098,
        "amenity": "school",
        "name": "Em Inocencio Martins",
        "id": "node/9039038667"
      },
      "geometry": {
        "type": "Point",
        "coordinates": [
          -45.0967862,
          -2.9716809
        ]
      }
    },
    {
      "type": "Feature",
      "id": "node/9101670334",
      "properties": {
        "timestamp": "2021-09-17T16:24:27Z",
        "version": 1,
        "changeset": 111345244,
        "amenity": "school",
        "name": "Escola Municipal Juarez Silva Costa",
        "id": "node/9101670334"
      },
      "geometry": {
        "type": "Point",
        "coordinates": [
          -45.0455667,
          -3.0970148
        ]
      }
    },
    {
      "type": "Feature",
      "id": "node/9110941024",
      "properties": {
        "timestamp": "2021-09-21T12:49:14Z",
        "version": 1,
        "changeset": 111495348,
        "amenity": "school",
        "name": "Em Dr Teixeira De Freitas",
        "id": "node/9110941024"
      },
      "geometry": {
        "type": "Point",
        "coordinates": [
          -45.087833,
          -3.0022326
        ]
      }
    },
    {
      "type": "Feature",
      "id": "node/9155492918",
      "properties": {
        "timestamp": "2021-10-07T13:54:41Z",
        "version": 1,
        "changeset": 112218269,
        "amenity": "school",
        "name": "Em Antônio Gomes Da Silva",
        "id": "node/9155492918"
      },
      "geometry": {
        "type": "Point",
        "coordinates": [
          -44.9365812,
          -3.1614926
        ]
      }
    },
    {
      "type": "Feature",
      "id": "node/9156275294",
      "properties": {
        "timestamp": "2021-10-07T20:34:55Z",
        "version": 1,
        "changeset": 112234402,
        "amenity": "school",
        "name": "Em São Domingos",
        "id": "node/9156275294"
      },
      "geometry": {
        "type": "Point",
        "coordinates": [
          -45.145153,
          -3.0154547
        ]
      }
    },
    {
      "type": "Feature",
      "id": "node/9156313739",
      "properties": {
        "timestamp": "2021-10-07T20:43:18Z",
        "version": 1,
        "changeset": 112234698,
        "amenity": "school",
        "name": "Em João Francisco Gomes",
        "id": "node/9156313739"
      },
      "geometry": {
        "type": "Point",
        "coordinates": [
          -44.9205211,
          -3.1337187
        ]
      }
    },
    {
      "type": "Feature",
      "id": "node/9209883674",
      "properties": {
        "timestamp": "2021-10-29T12:36:08Z",
        "version": 1,
        "changeset": 113123002,
        "amenity": "school",
        "name": "Em São José",
        "id": "node/9209883674"
      },
      "geometry": {
        "type": "Point",
        "coordinates": [
          -45.0810715,
          -2.9432659
        ]
      }
    },
    {
      "type": "Feature",
      "id": "node/9209915350",
      "properties": {
        "timestamp": "2021-10-29T12:35:27Z",
        "version": 1,
        "changeset": 113122976,
        "amenity": "school",
        "name": "Em Dr Pedro Neiva De Santana",
        "id": "node/9209915350"
      },
      "geometry": {
        "type": "Point",
        "coordinates": [
          -45.1008117,
          -2.9560709
        ]
      }
    },
    {
      "type": "Feature",
      "id": "node/9209921374",
      "properties": {
        "timestamp": "2021-10-29T12:31:12Z",
        "version": 1,
        "changeset": 113122803,
        "amenity": "school",
        "name": "Em Jacuica",
        "id": "node/9209921374"
      },
      "geometry": {
        "type": "Point",
        "coordinates": [
          -45.1257323,
          -3.0279026
        ]
      }
    },
    {
      "type": "Feature",
      "id": "node/9216355372",
      "properties": {
        "timestamp": "2021-11-01T14:23:22Z",
        "version": 1,
        "changeset": 113239300,
        "amenity": "school",
        "name": "Em Severo Da Silva Bastos",
        "id": "node/9216355372"
      },
      "geometry": {
        "type": "Point",
        "coordinates": [
          -44.9348034,
          -3.0913879
        ]
      }
    },
    {
      "type": "Feature",
      "id": "node/9216389852",
      "properties": {
        "timestamp": "2021-11-01T14:28:35Z",
        "version": 1,
        "changeset": 113239552,
        "amenity": "school",
        "name": "Ji Saci Perere",
        "id": "node/9216389852"
      },
      "geometry": {
        "type": "Point",
        "coordinates": [
          -44.9808531,
          -3.090759
        ]
      }
    },
    {
      "type": "Feature",
      "id": "node/9216390586",
      "properties": {
        "timestamp": "2021-11-01T14:24:08Z",
        "version": 1,
        "changeset": 113239332,
        "amenity": "school",
        "name": "Em Duque De Caxias",
        "id": "node/9216390586"
      },
      "geometry": {
        "type": "Point",
        "coordinates": [
          -44.9585193,
          -3.100253
        ]
      }
    },
    {
      "type": "Feature",
      "id": "node/9216395308",
      "properties": {
        "timestamp": "2021-11-01T14:28:12Z",
        "version": 1,
        "changeset": 113239534,
        "amenity": "school",
        "name": "Em Reunida Monte Cristo",
        "id": "node/9216395308"
      },
      "geometry": {
        "type": "Point",
        "coordinates": [
          -44.9690799,
          -3.0844856
        ]
      }
    },
    {
      "type": "Feature",
      "id": "node/9216397467",
      "properties": {
        "timestamp": "2021-11-01T14:33:05Z",
        "version": 1,
        "changeset": 113239780,
        "amenity": "school",
        "name": "Em Luis Beltrao Furtado",
        "id": "node/9216397467"
      },
      "geometry": {
        "type": "Point",
        "coordinates": [
          -44.9766756,
          -3.0602494
        ]
      }
    },
    {
      "type": "Feature",
      "id": "node/9216400131",
      "properties": {
        "timestamp": "2021-11-01T14:29:48Z",
        "version": 1,
        "changeset": 113239609,
        "amenity": "school",
        "name": "Em Maria Da Conceicao Bastos Cunha",
        "id": "node/9216400131"
      },
      "geometry": {
        "type": "Point",
        "coordinates": [
          -44.9809199,
          -3.0924249
        ]
      }
    },
    {
      "type": "Feature",
      "id": "node/9216408019",
      "properties": {
        "timestamp": "2021-11-01T14:33:23Z",
        "version": 1,
        "changeset": 113239796,
        "amenity": "school",
        "name": "Ji Chapeuzinho Vermelho",
        "id": "node/9216408019"
      },
      "geometry": {
        "type": "Point",
        "coordinates": [
          -44.9832561,
          -3.0591189
        ]
      }
    },
    {
      "type": "Feature",
      "id": "node/9297277996",
      "properties": {
        "timestamp": "2021-11-30T18:46:29Z",
        "version": 1,
        "changeset": 114414282,
        "amenity": "school",
        "name": "Instituto Educacional Alberto Silva Costa",
        "id": "node/9297277996"
      },
      "geometry": {
        "type": "Point",
        "coordinates": [
          -45.0332983,
          -3.1029928
        ]
      }
    },
    {
      "type": "Feature",
      "id": "node/9297302394",
      "properties": {
        "timestamp": "2021-11-30T18:47:34Z",
        "version": 1,
        "changeset": 114414318,
        "amenity": "school",
        "name": "Escola Municipal Clodomir Teixeira Millet",
        "id": "node/9297302394"
      },
      "geometry": {
        "type": "Point",
        "coordinates": [
          -45.0371231,
          -3.1004966
        ]
      }
    },
    {
      "type": "Feature",
      "id": "node/9297309379",
      "properties": {
        "timestamp": "2021-11-30T18:46:08Z",
        "version": 1,
        "changeset": 114414275,
        "amenity": "school",
        "name": "J I São Sebastiao",
        "id": "node/9297309379"
      },
      "geometry": {
        "type": "Point",
        "coordinates": [
          -45.0305463,
          -3.1047578
        ]
      }
    },
    {
      "type": "Feature",
      "id": "node/9325599931",
      "properties": {
        "timestamp": "2021-12-09T21:51:28Z",
        "version": 1,
        "changeset": 114761245,
        "amenity": "school",
        "name": "Em Manoel Torquato Alves Da Silva",
        "id": "node/9325599931"
      },
      "geometry": {
        "type": "Point",
        "coordinates": [
          -45.0692426,
          -3.099207
        ]
      }
    },
    {
      "type": "Feature",
      "id": "node/9325608867",
      "properties": {
        "timestamp": "2021-12-09T21:49:32Z",
        "version": 1,
        "changeset": 114761200,
        "amenity": "school",
        "name": "Em Manoel Torquato Alves Da Silva",
        "id": "node/9325608867"
      },
      "geometry": {
        "type": "Point",
        "coordinates": [
          -45.0623681,
          -3.1173041
        ]
      }
    },
    {
      "type": "Feature",
      "id": "node/9325610355",
      "properties": {
        "timestamp": "2021-12-09T21:57:08Z",
        "version": 1,
        "changeset": 114761362,
        "amenity": "school",
        "name": "Em Graca De Deus",
        "id": "node/9325610355"
      },
      "geometry": {
        "type": "Point",
        "coordinates": [
          -45.0730862,
          -3.0394474
        ]
      }
    },
    {
      "type": "Feature",
      "id": "node/9325612118",
      "properties": {
        "timestamp": "2021-12-09T21:56:15Z",
        "version": 1,
        "changeset": 114761340,
        "amenity": "school",
        "id": "node/9325612118"
      },
      "geometry": {
        "type": "Point",
        "coordinates": [
          -45.0983714,
          -3.0399885
        ]
      }
    },
    {
      "type": "Feature",
      "id": "node/9325615395",
      "properties": {
        "timestamp": "2021-12-09T21:52:23Z",
        "version": 1,
        "changeset": 114761262,
        "amenity": "school",
        "name": "Em Mariano Silva",
        "id": "node/9325615395"
      },
      "geometry": {
        "type": "Point",
        "coordinates": [
          -45.0878383,
          -3.0821917
        ]
      }
    },
    {
      "type": "Feature",
      "id": "node/9325622934",
      "properties": {
        "timestamp": "2021-12-09T21:51:54Z",
        "version": 1,
        "changeset": 114761255,
        "amenity": "school",
        "name": "Em João Amaral Da Silva",
        "id": "node/9325622934"
      },
      "geometry": {
        "type": "Point",
        "coordinates": [
          -45.0632934,
          -3.0832604
        ]
      }
    },
    {
      "type": "Feature",
      "id": "node/9325622935",
      "properties": {
        "timestamp": "2021-12-09T21:57:59Z",
        "version": 1,
        "changeset": 114761386,
        "amenity": "school",
        "name": "Em Alberto Silva Costa",
        "id": "node/9325622935"
      },
      "geometry": {
        "type": "Point",
        "coordinates": [
          -45.0300582,
          -3.0722846
        ]
      }
    },
    {
      "type": "Feature",
      "id": "node/9325634389",
      "properties": {
        "timestamp": "2021-12-09T21:57:36Z",
        "version": 1,
        "changeset": 114761375,
        "amenity": "school",
        "name": "Em Emidio Morais",
        "id": "node/9325634389"
      },
      "geometry": {
        "type": "Point",
        "coordinates": [
          -45.0457866,
          -3.0602346
        ]
      }
    },
    {
      "type": "Feature",
      "id": "node/9325705088",
      "properties": {
        "timestamp": "2021-12-09T22:55:09Z",
        "version": 1,
        "changeset": 114762791,
        "amenity": "school",
        "name": "Jardim De Infância Abelhinha",
        "id": "node/9325705088"
      },
      "geometry": {
        "type": "Point",
        "coordinates": [
          -45.0341754,
          -3.0971796
        ]
      }
    },
    {
      "type": "Feature",
      "id": "node/9325715116",
      "properties": {
        "timestamp": "2021-12-09T22:55:30Z",
        "version": 1,
        "changeset": 114762804,
        "amenity": "school",
        "name": "Escola Municipal Professora Maria Berredo Da Silva",
        "id": "node/9325715116"
      },
      "geometry": {
        "type": "Point",
        "coordinates": [
          -45.0333707,
          -3.0981009
        ]
      }
    },
    {
      "type": "Feature",
      "id": "node/9325718359",
      "properties": {
        "timestamp": "2021-12-09T23:00:40Z",
        "version": 1,
        "changeset": 114762915,
        "amenity": "school",
        "name": "Em Nsa Sra Do Loureto",
        "id": "node/9325718359"
      },
      "geometry": {
        "type": "Point",
        "coordinates": [
          -44.9795549,
          -3.1420212
        ]
      }
    },
    {
      "type": "Feature",
      "id": "node/9325731129",
      "properties": {
        "timestamp": "2021-12-09T23:00:20Z",
        "version": 1,
        "changeset": 114762908,
        "amenity": "school",
        "name": "Em Fe Em Deus I",
        "id": "node/9325731129"
      },
      "geometry": {
        "type": "Point",
        "coordinates": [
          -44.9918018,
          -3.1517698
        ]
      }
    },
    {
      "type": "Feature",
      "id": "node/9325732153",
      "properties": {
        "timestamp": "2021-12-09T22:55:51Z",
        "version": 1,
        "changeset": 114762812,
        "amenity": "school",
        "name": "Colegio Renascer Matinhense",
        "id": "node/9325732153"
      },
      "geometry": {
        "type": "Point",
        "coordinates": [
          -45.0310989,
          -3.0995632
        ]
      }
    },
    {
      "type": "Feature",
      "id": "node/9325739314",
      "properties": {
        "timestamp": "2021-12-09T23:00:59Z",
        "version": 1,
        "changeset": 114762920,
        "amenity": "school",
        "name": "Em Raimundo Pedro Machado Serra",
        "id": "node/9325739314"
      },
      "geometry": {
        "type": "Point",
        "coordinates": [
          -44.9569546,
          -3.1299078
        ]
      }
    },
    {
      "type": "Feature",
      "id": "node/9325741024",
      "properties": {
        "timestamp": "2021-12-09T22:56:13Z",
        "version": 1,
        "changeset": 114762819,
        "amenity": "school",
        "name": "Jardim De Infancia Irma Dulce",
        "id": "node/9325741024"
      },
      "geometry": {
        "type": "Point",
        "coordinates": [
          -45.0307797,
          -3.1011381
        ]
      }
    },
    {
      "type": "Feature",
      "id": "node/9325751755",
      "properties": {
        "timestamp": "2021-12-09T23:00:02Z",
        "version": 1,
        "changeset": 114762903,
        "amenity": "school",
        "name": "Em São Francisco",
        "id": "node/9325751755"
      },
      "geometry": {
        "type": "Point",
        "coordinates": [
          -45.0043868,
          -3.140717
        ]
      }
    },
    {
      "type": "Feature",
      "id": "node/9330633020",
      "properties": {
        "timestamp": "2021-12-11T21:01:13Z",
        "version": 1,
        "changeset": 114830625,
        "amenity": "school",
        "name": "Em Dr Francisco Das Chagas Araujo",
        "id": "node/9330633020"
      },
      "geometry": {
        "type": "Point",
        "coordinates": [
          -44.9327369,
          -3.1345129
        ]
      }
    },
    {
      "type": "Feature",
      "id": "node/9332014621",
      "properties": {
        "timestamp": "2021-12-12T13:38:07Z",
        "version": 1,
        "changeset": 114846728,
        "amenity": "school",
        "name": "Escola Municipal Graca Divina",
        "id": "node/9332014621"
      },
      "geometry": {
        "type": "Point",
        "coordinates": [
          -45.0087427,
          -3.0396255
        ]
      }
    },
    {
      "type": "Feature",
      "id": "node/9332018647",
      "properties": {
        "timestamp": "2021-12-12T13:38:25Z",
        "version": 1,
        "changeset": 114846743,
        "amenity": "school",
        "name": "Escola Municipal São Raimundo Nonato",
        "id": "node/9332018647"
      },
      "geometry": {
        "type": "Point",
        "coordinates": [
          -45.0133426,
          -3.0444226
        ]
      }
    },
    {
      "type": "Feature",
      "id": "node/9332160420",
      "properties": {
        "timestamp": "2021-12-12T14:54:50Z",
        "version": 1,
        "changeset": 114848991,
        "amenity": "school",
        "name": "Em Nossa Senhora Da Conceicao",
        "id": "node/9332160420"
      },
      "geometry": {
        "type": "Point",
        "coordinates": [
          -45.0728314,
          -2.9851743
        ]
      }
    }
  ]
}
