{
  "type": "FeatureCollection",
  "features": [
    {
      "type": "Feature",
      "id": "node/5452181522",
      "properties": {
        "timestamp": "2018-03-03T21:45:22Z",
        "version": 1,
        "changeset": 56858103,
        "historic": "monument",
        "name": "Homenagem à Dante Carraro",
        "id": "node/5452181522"
      },
      "geometry": {
        "type": "Point",
        "coordinates": [
          -47.9933194,
          -23.8783942
        ]
      }
    },
    {
      "type": "Feature",
      "id": "node/5484800390",
      "properties": {
        "timestamp": "2018-03-17T15:53:30Z",
        "version": 1,
        "changeset": 57269987,
        "historic": "monument",
        "inscription": "São Miguel Arcanjo exalta gloriosamente seus diletos filhos em defesa da pátria",
        "name": "Homenagem aos Expedicionários",
        "id": "node/5484800390"
      },
      "geometry": {
        "type": "Point",
        "coordinates": [
          -47.9972387,
          -23.8782915
        ]
      }
    },
    {
      "type": "Feature",
      "id": "node/5766465487",
      "properties": {
        "timestamp": "2023-05-05T20:48:33Z",
        "version": 2,
        "changeset": 135756644,
        "historic": "monument",
        "man_made": "torii",
        "name": "Torii",
        "id": "node/5766465487"
      },
      "geometry": {
        "type": "Point",
        "coordinates": [
          -47.9977694,
          -23.8848804
        ]
      }
    },
    {
      "type": "Feature",
      "id": "node/5769318317",
      "properties": {
        "timestamp": "2018-07-19T01:38:43Z",
        "version": 1,
        "changeset": 60852805,
        "historic": "monument",
        "name": "Homenagem à Laboriosa Colônia Japonesa de São Miguel Arcanjo",
        "id": "node/5769318317"
      },
      "geometry": {
        "type": "Point",
        "coordinates": [
          -47.9937218,
          -23.878737
        ]
      }
    },
    {
      "type": "Feature",
      "id": "node/6587284023",
      "properties": {
        "timestamp": "2019-07-03T18:43:02Z",
        "version": 1,
        "changeset": 71871805,
        "access": "yes",
        "historic": "monument",
        "name": "Monumento Cacho de Uva Itália",
        "id": "node/6587284023"
      },
      "geometry": {
        "type": "Point",
        "coordinates": [
          -48.0017556,
          -23.8792186
        ]
      }
    },
    {
      "type": "Feature",
      "id": "node/6587284024",
      "properties": {
        "timestamp": "2019-07-03T18:43:02Z",
        "version": 1,
        "changeset": 71871805,
        "access": "yes",
        "historic": "monument",
        "inscription": "Monumento Cacho de Uva Itália em São Miguel Arcanjo. A Capital da Uva Itália.",
        "name": "Monumento Cacho de Uva Itália",
        "id": "node/6587284024"
      },
      "geometry": {
        "type": "Point",
        "coordinates": [
          -47.991064,
          -23.879614
        ]
      }
    },
    {
      "type": "Feature",
      "id": "node/8165314610",
      "properties": {
        "timestamp": "2020-11-25T17:54:59Z",
        "version": 1,
        "changeset": 94791828,
        "access": "yes",
        "historic": "monument",
        "name": "Monumento Cacho de Uva",
        "id": "node/8165314610"
      },
      "geometry": {
        "type": "Point",
        "coordinates": [
          -48.0034276,
          -23.8818219
        ]
      }
    }
  ]
}
