{
  "type": "FeatureCollection",
  "features": [
    {
      "type": "Feature",
      "id": "node/1640842151",
      "properties": {
        "timestamp": "2020-06-23T03:57:55Z",
        "version": 2,
        "changeset": 87006888,
        "name": "Corredeira do Bispo",
        "source:name": "Comissão Geographica e Geologica Provincia de São Paulo 1888: Planta do Rio Tietê. Folha 1.",
        "waterway": "waterfall",
        "id": "node/1640842151"
      },
      "geometry": {
        "type": "Point",
        "coordinates": [
          -47.3378563,
          -23.1992977
        ]
      }
    },
    {
      "type": "Feature",
      "id": "node/1688508383",
      "properties": {
        "timestamp": "2020-06-23T03:57:55Z",
        "version": 3,
        "changeset": 87006888,
        "name": "Cachoeira do Atuaí",
        "source:name": "Comissão Geographica e Geologica Provincia de São Paulo 1888: Planta do Rio Tietê. Folha 2.",
        "waterway": "waterfall",
        "id": "node/1688508383"
      },
      "geometry": {
        "type": "Point",
        "coordinates": [
          -47.3851438,
          -23.1559288
        ]
      }
    },
    {
      "type": "Feature",
      "id": "node/1755107093",
      "properties": {
        "timestamp": "2020-06-23T03:57:55Z",
        "version": 3,
        "changeset": 87006888,
        "waterway": "waterfall",
        "id": "node/1755107093"
      },
      "geometry": {
        "type": "Point",
        "coordinates": [
          -47.2993839,
          -23.2082452
        ]
      }
    },
    {
      "type": "Feature",
      "id": "node/1780425874",
      "properties": {
        "timestamp": "2020-06-23T03:57:55Z",
        "version": 2,
        "changeset": 87006888,
        "name": "Corredeira do Buru",
        "source:name": "Comissão Geographica e Geologica Provincia de São Paulo 1888",
        "waterway": "waterfall",
        "id": "node/1780425874"
      },
      "geometry": {
        "type": "Point",
        "coordinates": [
          -47.3494976,
          -23.1872268
        ]
      }
    },
    {
      "type": "Feature",
      "id": "node/6484823581",
      "properties": {
        "timestamp": "2019-05-20T03:57:57Z",
        "version": 1,
        "changeset": 70425417,
        "waterway": "waterfall",
        "id": "node/6484823581"
      },
      "geometry": {
        "type": "Point",
        "coordinates": [
          -47.2992593,
          -23.2077081
        ]
      }
    },
    {
      "type": "Feature",
      "id": "node/6484828794",
      "properties": {
        "timestamp": "2020-06-23T03:57:55Z",
        "version": 2,
        "changeset": 87006888,
        "name": "Salto de Itu-Guaçu",
        "note": "Posição aproximada",
        "source:name": "Comissão Geographica e Geologica Provincia de São Paulo 1888",
        "waterway": "waterfall",
        "id": "node/6484828794"
      },
      "geometry": {
        "type": "Point",
        "coordinates": [
          -47.2958434,
          -23.2083354
        ]
      }
    },
    {
      "type": "Feature",
      "id": "node/6484828798",
      "properties": {
        "timestamp": "2019-05-20T03:57:57Z",
        "version": 1,
        "changeset": 70425417,
        "waterway": "waterfall",
        "id": "node/6484828798"
      },
      "geometry": {
        "type": "Point",
        "coordinates": [
          -47.2955082,
          -23.2080644
        ]
      }
    }
  ]
}
