{
  "type": "FeatureCollection",
  "features": [
    {
      "type": "Feature",
      "id": "node/4698259893",
      "properties": {
        "timestamp": "2017-02-22T01:02:41Z",
        "version": 1,
        "changeset": 46291786,
        "amenity": "pharmacy",
        "name": "Farmácia Unisul",
        "name:pt": "Farmácia Unisul",
        "id": "node/4698259893"
      },
      "geometry": {
        "type": "Point",
        "coordinates": [
          -49.0756128,
          -26.4113425
        ]
      }
    },
    {
      "type": "Feature",
      "id": "node/4698276296",
      "properties": {
        "timestamp": "2017-02-22T01:02:34Z",
        "version": 1,
        "changeset": 46291786,
        "amenity": "pharmacy",
        "name": "Essencial Farma",
        "name:pt": "Essencial Farma",
        "id": "node/4698276296"
      },
      "geometry": {
        "type": "Point",
        "coordinates": [
          -49.0235644,
          -26.449548
        ]
      }
    },
    {
      "type": "Feature",
      "id": "node/4698276297",
      "properties": {
        "timestamp": "2017-02-22T01:02:36Z",
        "version": 1,
        "changeset": 46291786,
        "amenity": "pharmacy",
        "name": "Farmácia Anjo",
        "name:pt": "Farmácia Anjo",
        "id": "node/4698276297"
      },
      "geometry": {
        "type": "Point",
        "coordinates": [
          -49.0872088,
          -26.4009547
        ]
      }
    },
    {
      "type": "Feature",
      "id": "node/4698276298",
      "properties": {
        "timestamp": "2017-02-22T01:02:39Z",
        "version": 1,
        "changeset": 46291786,
        "amenity": "pharmacy",
        "name": "Farmácia Nádia Fabiane",
        "id": "node/4698276298"
      },
      "geometry": {
        "type": "Point",
        "coordinates": [
          -49.0769239,
          -26.4100597
        ]
      }
    },
    {
      "type": "Feature",
      "id": "node/4698287996",
      "properties": {
        "timestamp": "2017-02-22T01:02:44Z",
        "version": 1,
        "changeset": 46291786,
        "amenity": "pharmacy",
        "name": "Farmácia Barão",
        "name:pt": "Farmácia Barão",
        "id": "node/4698287996"
      },
      "geometry": {
        "type": "Point",
        "coordinates": [
          -49.0691039,
          -26.4225403
        ]
      }
    }
  ]
}
