{
  "type": "FeatureCollection",
  "features": [
    {
      "type": "Feature",
      "id": "node/1162429063",
      "properties": {
        "timestamp": "2020-06-07T02:59:39Z",
        "version": 3,
        "changeset": 86296329,
        "name": "Cachoeira do Oito",
        "waterway": "waterfall",
        "id": "node/1162429063"
      },
      "geometry": {
        "type": "Point",
        "coordinates": [
          -40.608625,
          -19.4680905
        ]
      }
    },
    {
      "type": "Feature",
      "id": "node/7599229458",
      "properties": {
        "timestamp": "2022-02-03T12:52:44Z",
        "version": 3,
        "changeset": 116963040,
        "name": "Cachoeira do Onze",
        "waterway": "waterfall",
        "id": "node/7599229458"
      },
      "geometry": {
        "type": "Point",
        "coordinates": [
          -40.6102552,
          -19.4701727
        ]
      }
    },
    {
      "type": "Feature",
      "id": "node/8664862076",
      "properties": {
        "timestamp": "2021-07-20T16:06:00Z",
        "version": 2,
        "changeset": 108328761,
        "name": "Cachoeira do Mirante",
        "waterway": "waterfall",
        "id": "node/8664862076"
      },
      "geometry": {
        "type": "Point",
        "coordinates": [
          -40.8074136,
          -19.3739885
        ]
      }
    },
    {
      "type": "Feature",
      "id": "node/9471228867",
      "properties": {
        "timestamp": "2022-02-09T00:47:58Z",
        "version": 2,
        "changeset": 117181333,
        "name": "Cachoeira do Poção",
        "waterway": "waterfall",
        "id": "node/9471228867"
      },
      "geometry": {
        "type": "Point",
        "coordinates": [
          -40.5278628,
          -19.7026278
        ]
      }
    },
    {
      "type": "Feature",
      "id": "node/9471238351",
      "properties": {
        "timestamp": "2022-02-03T11:52:53Z",
        "version": 2,
        "changeset": 116960502,
        "name": "Cachoeira de Santa Maria",
        "waterway": "waterfall",
        "id": "node/9471238351"
      },
      "geometry": {
        "type": "Point",
        "coordinates": [
          -40.6161046,
          -19.6203801
        ]
      }
    }
  ]
}
