{
  "type": "FeatureCollection",
  "features": [
    {
      "type": "Feature",
      "id": "node/2895313213",
      "properties": {
        "timestamp": "2017-10-10T23:35:51Z",
        "version": 5,
        "changeset": 52808791,
        "amenity": "community_centre",
        "community_centre": "village_hall",
        "name": "Clube Comunitario Padre Réus",
        "id": "node/2895313213"
      },
      "geometry": {
        "type": "Point",
        "coordinates": [
          -53.6724977,
          -26.486986
        ]
      }
    },
    {
      "type": "Feature",
      "id": "node/2951815010",
      "properties": {
        "timestamp": "2017-10-10T23:35:51Z",
        "version": 4,
        "changeset": 52808791,
        "amenity": "community_centre",
        "community_centre": "community_hall",
        "community_centre:for": "senior",
        "name": "Centro dos Idosos",
        "id": "node/2951815010"
      },
      "geometry": {
        "type": "Point",
        "coordinates": [
          -53.6689711,
          -26.4895598
        ]
      }
    },
    {
      "type": "Feature",
      "id": "node/3710083100",
      "properties": {
        "timestamp": "2016-11-20T03:02:33Z",
        "version": 2,
        "changeset": 43813921,
        "amenity": "community_centre",
        "name": "Salão Comunitario",
        "id": "node/3710083100"
      },
      "geometry": {
        "type": "Point",
        "coordinates": [
          -53.6544051,
          -26.462484
        ]
      }
    },
    {
      "type": "Feature",
      "id": "node/3716140308",
      "properties": {
        "timestamp": "2022-09-02T16:25:02Z",
        "version": 2,
        "changeset": 125706436,
        "amenity": "community_centre",
        "community_centre": "parish_hall",
        "id": "node/3716140308"
      },
      "geometry": {
        "type": "Point",
        "coordinates": [
          -53.5185161,
          -26.4362178
        ]
      }
    },
    {
      "type": "Feature",
      "id": "node/3716140452",
      "properties": {
        "timestamp": "2017-10-10T23:35:51Z",
        "version": 4,
        "changeset": 52808791,
        "amenity": "community_centre",
        "community_centre": "village_hall",
        "name": "Salão Comunitario Esquina Mariflor",
        "id": "node/3716140452"
      },
      "geometry": {
        "type": "Point",
        "coordinates": [
          -53.5947569,
          -26.497027
        ]
      }
    },
    {
      "type": "Feature",
      "id": "node/3716140481",
      "properties": {
        "timestamp": "2017-06-04T19:26:59Z",
        "version": 2,
        "changeset": 49249991,
        "amenity": "community_centre",
        "name": "Clube Comunitario",
        "id": "node/3716140481"
      },
      "geometry": {
        "type": "Point",
        "coordinates": [
          -53.62601,
          -26.5062156
        ]
      }
    },
    {
      "type": "Feature",
      "id": "node/3717367868",
      "properties": {
        "timestamp": "2017-10-10T23:35:51Z",
        "version": 2,
        "changeset": 52808791,
        "amenity": "community_centre",
        "id": "node/3717367868"
      },
      "geometry": {
        "type": "Point",
        "coordinates": [
          -53.546877,
          -26.4947881
        ]
      }
    }
  ]
}
