{
  "type": "FeatureCollection",
  "features": [
    {
      "type": "Feature",
      "id": "node/4207892090",
      "properties": {
        "timestamp": "2016-05-25T20:58:48Z",
        "version": 1,
        "changeset": 39567175,
        "amenity": "pharmacy",
        "name": "Farmácia do Trabalhador",
        "id": "node/4207892090"
      },
      "geometry": {
        "type": "Point",
        "coordinates": [
          -37.1550208,
          -8.6233313
        ]
      }
    },
    {
      "type": "Feature",
      "id": "node/4207892091",
      "properties": {
        "timestamp": "2020-04-24T14:45:29Z",
        "version": 2,
        "changeset": 84067127,
        "amenity": "pharmacy",
        "name": "Farmácia Real",
        "id": "node/4207892091"
      },
      "geometry": {
        "type": "Point",
        "coordinates": [
          -37.1556554,
          -8.6234118
        ]
      }
    },
    {
      "type": "Feature",
      "id": "node/4207892094",
      "properties": {
        "timestamp": "2016-05-25T20:58:48Z",
        "version": 1,
        "changeset": 39567175,
        "amenity": "pharmacy",
        "name": "Drogaria Frei Damião",
        "id": "node/4207892094"
      },
      "geometry": {
        "type": "Point",
        "coordinates": [
          -37.1556219,
          -8.6228477
        ]
      }
    },
    {
      "type": "Feature",
      "id": "node/4207892097",
      "properties": {
        "timestamp": "2016-05-25T20:58:48Z",
        "version": 1,
        "changeset": 39567175,
        "amenity": "pharmacy",
        "name": "Farmácia São Geraldo",
        "id": "node/4207892097"
      },
      "geometry": {
        "type": "Point",
        "coordinates": [
          -37.1553656,
          -8.6231915
        ]
      }
    },
    {
      "type": "Feature",
      "id": "node/4207892098",
      "properties": {
        "timestamp": "2016-05-25T20:58:48Z",
        "version": 1,
        "changeset": 39567175,
        "amenity": "pharmacy",
        "name": "Farmácia Nova Aliança",
        "id": "node/4207892098"
      },
      "geometry": {
        "type": "Point",
        "coordinates": [
          -37.1549029,
          -8.623579
        ]
      }
    }
  ]
}
