{
  "type": "FeatureCollection",
  "features": [
    {
      "type": "Feature",
      "id": "node/5087312303",
      "properties": {
        "timestamp": "2017-09-07T22:05:00Z",
        "version": 1,
        "changeset": 51827025,
        "historic": "monument",
        "id": "node/5087312303"
      },
      "geometry": {
        "type": "Point",
        "coordinates": [
          -54.6662418,
          -16.4481252
        ]
      }
    },
    {
      "type": "Feature",
      "id": "node/5109177876",
      "properties": {
        "timestamp": "2018-09-19T12:47:25Z",
        "version": 3,
        "changeset": 62729338,
        "historic": "monument",
        "name": "Rondonópolis",
        "id": "node/5109177876"
      },
      "geometry": {
        "type": "Point",
        "coordinates": [
          -54.6466529,
          -16.490613
        ]
      }
    },
    {
      "type": "Feature",
      "id": "node/5266515430",
      "properties": {
        "timestamp": "2017-12-05T19:39:50Z",
        "version": 1,
        "changeset": 54378427,
        "historic": "monument",
        "name": "Cruz do Cais",
        "id": "node/5266515430"
      },
      "geometry": {
        "type": "Point",
        "coordinates": [
          -54.6345085,
          -16.4779383
        ]
      }
    },
    {
      "type": "Feature",
      "id": "node/5926744796",
      "properties": {
        "timestamp": "2018-09-24T13:39:34Z",
        "version": 1,
        "changeset": 62880976,
        "historic": "monument",
        "name": "Carro de Boi",
        "id": "node/5926744796"
      },
      "geometry": {
        "type": "Point",
        "coordinates": [
          -54.6279613,
          -16.469665
        ]
      }
    },
    {
      "type": "Feature",
      "id": "node/5927869626",
      "properties": {
        "timestamp": "2018-09-25T01:17:11Z",
        "version": 1,
        "changeset": 62898294,
        "historic": "monument",
        "name": "Gaúcho",
        "id": "node/5927869626"
      },
      "geometry": {
        "type": "Point",
        "coordinates": [
          -54.6009902,
          -16.4728625
        ]
      }
    },
    {
      "type": "Feature",
      "id": "node/5930274177",
      "properties": {
        "timestamp": "2018-09-25T22:53:25Z",
        "version": 1,
        "changeset": 62929626,
        "historic": "monument",
        "name": "Imigração japonesa no Brasil",
        "id": "node/5930274177"
      },
      "geometry": {
        "type": "Point",
        "coordinates": [
          -54.6113026,
          -16.4739673
        ]
      }
    },
    {
      "type": "Feature",
      "id": "node/5931379492",
      "properties": {
        "timestamp": "2018-09-26T12:35:05Z",
        "version": 1,
        "changeset": 62945126,
        "historic": "monument",
        "id": "node/5931379492"
      },
      "geometry": {
        "type": "Point",
        "coordinates": [
          -54.7218605,
          -16.588507
        ]
      }
    }
  ]
}
