{
  "type": "FeatureCollection",
  "features": [
    {
      "type": "Feature",
      "id": "node/3729971122",
      "properties": {
        "timestamp": "2022-11-06T13:41:20Z",
        "version": 3,
        "changeset": 128555580,
        "historic": "memorial",
        "memorial": "statue",
        "id": "node/3729971122"
      },
      "geometry": {
        "type": "Point",
        "coordinates": [
          -51.0219061,
          -26.7847036
        ]
      }
    },
    {
      "type": "Feature",
      "id": "node/5809537157",
      "properties": {
        "timestamp": "2020-06-02T20:15:36Z",
        "version": 2,
        "changeset": 86096901,
        "historic": "memorial",
        "name": "Portal de cacador",
        "id": "node/5809537157"
      },
      "geometry": {
        "type": "Point",
        "coordinates": [
          -50.9589135,
          -26.789847
        ]
      }
    },
    {
      "type": "Feature",
      "id": "node/5932730092",
      "properties": {
        "timestamp": "2022-07-18T15:44:53Z",
        "version": 6,
        "changeset": 123769975,
        "historic": "memorial",
        "inscription": "Fundador de grande empresa local com economia",
        "memorial": "statue",
        "name": "José Rossi Adami",
        "id": "node/5932730092"
      },
      "geometry": {
        "type": "Point",
        "coordinates": [
          -51.0157257,
          -26.7730783
        ]
      }
    },
    {
      "type": "Feature",
      "id": "node/7217019281",
      "properties": {
        "timestamp": "2022-07-18T15:44:53Z",
        "version": 3,
        "changeset": 123769975,
        "historic": "memorial",
        "memorial": "bust",
        "name": "José Kurtz",
        "id": "node/7217019281"
      },
      "geometry": {
        "type": "Point",
        "coordinates": [
          -51.0113954,
          -26.7712063
        ]
      }
    },
    {
      "type": "Feature",
      "id": "node/7767814277",
      "properties": {
        "timestamp": "2022-07-18T15:44:53Z",
        "version": 3,
        "changeset": 123769975,
        "historic": "memorial",
        "memorial": "statue",
        "name": "Monge João Maria",
        "id": "node/7767814277"
      },
      "geometry": {
        "type": "Point",
        "coordinates": [
          -51.0160682,
          -26.7727369
        ]
      }
    },
    {
      "type": "Feature",
      "id": "node/7767814278",
      "properties": {
        "timestamp": "2022-07-18T15:44:53Z",
        "version": 2,
        "changeset": 123769975,
        "historic": "memorial",
        "name": "Deus quer, o home sonha e a obra nasce",
        "id": "node/7767814278"
      },
      "geometry": {
        "type": "Point",
        "coordinates": [
          -51.0144813,
          -26.7726446
        ]
      }
    },
    {
      "type": "Feature",
      "id": "node/7768443718",
      "properties": {
        "timestamp": "2022-07-17T23:40:11Z",
        "version": 2,
        "changeset": 123738004,
        "historic": "memorial",
        "name": "Acordo de Limites",
        "id": "node/7768443718"
      },
      "geometry": {
        "type": "Point",
        "coordinates": [
          -51.0165391,
          -26.7734103
        ]
      }
    },
    {
      "type": "Feature",
      "id": "node/7768443719",
      "properties": {
        "timestamp": "2022-07-18T15:44:53Z",
        "version": 2,
        "changeset": 123769975,
        "historic": "memorial",
        "memorial": "plaque",
        "id": "node/7768443719"
      },
      "geometry": {
        "type": "Point",
        "coordinates": [
          -51.0163244,
          -26.7728757
        ]
      }
    },
    {
      "type": "Feature",
      "id": "node/9894143280",
      "properties": {
        "timestamp": "2022-07-18T15:44:53Z",
        "version": 2,
        "changeset": 123769975,
        "historic": "memorial",
        "memorial": "equestrian_statue",
        "name": "Francisco Correia de Melo",
        "id": "node/9894143280"
      },
      "geometry": {
        "type": "Point",
        "coordinates": [
          -51.0160447,
          -26.7727897
        ]
      }
    },
    {
      "type": "Feature",
      "id": "node/9894143281",
      "properties": {
        "timestamp": "2022-07-17T23:40:11Z",
        "version": 1,
        "changeset": 123738004,
        "historic": "memorial",
        "memorial": "plaque",
        "name": "José Rossi Adami",
        "id": "node/9894143281"
      },
      "geometry": {
        "type": "Point",
        "coordinates": [
          -51.0157221,
          -26.7730619
        ]
      }
    },
    {
      "type": "Feature",
      "id": "node/9894143282",
      "properties": {
        "timestamp": "2022-07-17T23:40:11Z",
        "version": 1,
        "changeset": 123738004,
        "historic": "memorial",
        "memorial": "plaque",
        "name": "Homenagem a José Rossi Adami",
        "id": "node/9894143282"
      },
      "geometry": {
        "type": "Point",
        "coordinates": [
          -51.015763,
          -26.7730714
        ]
      }
    },
    {
      "type": "Feature",
      "id": "node/9894143283",
      "properties": {
        "timestamp": "2022-07-17T23:40:11Z",
        "version": 1,
        "changeset": 123738004,
        "historic": "memorial",
        "memorial": "plaque",
        "name": "Homenagem a José Rossi Adami",
        "id": "node/9894143283"
      },
      "geometry": {
        "type": "Point",
        "coordinates": [
          -51.0156919,
          -26.7730888
        ]
      }
    },
    {
      "type": "Feature",
      "id": "node/9894143284",
      "properties": {
        "timestamp": "2022-07-17T23:40:11Z",
        "version": 1,
        "changeset": 123738004,
        "historic": "memorial",
        "memorial": "plaque",
        "name": "Homenagem a José Rossi Adami",
        "id": "node/9894143284"
      },
      "geometry": {
        "type": "Point",
        "coordinates": [
          -51.0157201,
          -26.7731127
        ]
      }
    },
    {
      "type": "Feature",
      "id": "node/9894143285",
      "properties": {
        "timestamp": "2022-07-17T23:40:11Z",
        "version": 1,
        "changeset": 123738004,
        "historic": "memorial",
        "memorial": "plaque",
        "name": "Homenagem a José Rossi Adami",
        "id": "node/9894143285"
      },
      "geometry": {
        "type": "Point",
        "coordinates": [
          -51.015757,
          -26.7730978
        ]
      }
    },
    {
      "type": "Feature",
      "id": "node/9894143286",
      "properties": {
        "timestamp": "2022-07-17T23:40:11Z",
        "version": 1,
        "changeset": 123738004,
        "historic": "memorial",
        "memorial": "plaque",
        "name": "Homenagem a José Rossi Adami",
        "id": "node/9894143286"
      },
      "geometry": {
        "type": "Point",
        "coordinates": [
          -51.0157422,
          -26.7730493
        ]
      }
    },
    {
      "type": "Feature",
      "id": "node/9894143287",
      "properties": {
        "timestamp": "2022-07-17T23:40:11Z",
        "version": 1,
        "changeset": 123738004,
        "historic": "memorial",
        "memorial": "plaque",
        "name": "Homenagem a José Rossi Adami",
        "id": "node/9894143287"
      },
      "geometry": {
        "type": "Point",
        "coordinates": [
          -51.0157013,
          -26.7730553
        ]
      }
    },
    {
      "type": "Feature",
      "id": "node/9894143289",
      "properties": {
        "timestamp": "2022-07-18T15:44:53Z",
        "version": 2,
        "changeset": 123769975,
        "historic": "memorial",
        "inscription": "\"Deus quer, o home sonha e a obra nasce\".",
        "memorial": "plaque",
        "id": "node/9894143289"
      },
      "geometry": {
        "type": "Point",
        "coordinates": [
          -51.0144809,
          -26.7726164
        ]
      }
    },
    {
      "type": "Feature",
      "id": "node/9894143290",
      "properties": {
        "timestamp": "2022-07-17T23:40:11Z",
        "version": 1,
        "changeset": 123738004,
        "historic": "memorial",
        "memorial": "plaque",
        "name": "Homenagem a José Kurtz",
        "id": "node/9894143290"
      },
      "geometry": {
        "type": "Point",
        "coordinates": [
          -51.0113984,
          -26.771185
        ]
      }
    },
    {
      "type": "Feature",
      "id": "node/9894143299",
      "properties": {
        "timestamp": "2022-07-17T23:40:11Z",
        "version": 1,
        "changeset": 123738004,
        "historic": "memorial",
        "memorial": "plaque",
        "name": "Museu do Contestado",
        "id": "node/9894143299"
      },
      "geometry": {
        "type": "Point",
        "coordinates": [
          -51.016494,
          -26.7732906
        ]
      }
    },
    {
      "type": "Feature",
      "id": "node/9894162822",
      "properties": {
        "timestamp": "2022-07-17T23:40:11Z",
        "version": 1,
        "changeset": 123738004,
        "historic": "memorial",
        "memorial": "plaque",
        "name": "Largo Caçajurê",
        "id": "node/9894162822"
      },
      "geometry": {
        "type": "Point",
        "coordinates": [
          -51.0141231,
          -26.7740593
        ]
      }
    }
  ]
}
