{
  "type": "FeatureCollection",
  "features": [
    {
      "type": "Feature",
      "id": "node/3151566368",
      "properties": {
        "timestamp": "2019-09-12T17:39:41Z",
        "version": 2,
        "changeset": 74402742,
        "waterway": "waterfall",
        "id": "node/3151566368"
      },
      "geometry": {
        "type": "Point",
        "coordinates": [
          -45.3628217,
          -23.8338837
        ]
      }
    },
    {
      "type": "Feature",
      "id": "node/3151566370",
      "properties": {
        "timestamp": "2019-09-12T17:39:41Z",
        "version": 2,
        "changeset": 74402742,
        "waterway": "waterfall",
        "id": "node/3151566370"
      },
      "geometry": {
        "type": "Point",
        "coordinates": [
          -45.3629384,
          -23.8358859
        ]
      }
    },
    {
      "type": "Feature",
      "id": "node/3469836442",
      "properties": {
        "timestamp": "2023-03-10T13:57:55Z",
        "version": 2,
        "changeset": 133519885,
        "name": "Cachoeira do Poço Fundo",
        "tourism": "attraction",
        "waterway": "waterfall",
        "id": "node/3469836442"
      },
      "geometry": {
        "type": "Point",
        "coordinates": [
          -45.3413048,
          -23.912589
        ]
      }
    },
    {
      "type": "Feature",
      "id": "node/3608274252",
      "properties": {
        "timestamp": "2015-06-21T04:02:55Z",
        "version": 1,
        "changeset": 32109144,
        "name": "Cachoeira do Saquinho",
        "waterway": "waterfall",
        "id": "node/3608274252"
      },
      "geometry": {
        "type": "Point",
        "coordinates": [
          -45.3549232,
          -23.9184176
        ]
      }
    },
    {
      "type": "Feature",
      "id": "node/3608292482",
      "properties": {
        "timestamp": "2023-03-10T13:57:55Z",
        "version": 2,
        "changeset": 133519885,
        "name": "Cachoeira da Lage",
        "tourism": "attraction",
        "waterway": "waterfall",
        "id": "node/3608292482"
      },
      "geometry": {
        "type": "Point",
        "coordinates": [
          -45.4089723,
          -23.9326255
        ]
      }
    },
    {
      "type": "Feature",
      "id": "node/5119675421",
      "properties": {
        "timestamp": "2017-09-21T13:41:26Z",
        "version": 2,
        "changeset": 52244283,
        "name": "Cachoeira do Bananal",
        "name:en": "Bananal Waterfall",
        "waterway": "waterfall",
        "id": "node/5119675421"
      },
      "geometry": {
        "type": "Point",
        "coordinates": [
          -45.3375036,
          -23.8041446
        ]
      }
    },
    {
      "type": "Feature",
      "id": "node/5680605953",
      "properties": {
        "timestamp": "2018-06-10T23:49:53Z",
        "version": 1,
        "changeset": 59723966,
        "waterway": "waterfall",
        "id": "node/5680605953"
      },
      "geometry": {
        "type": "Point",
        "coordinates": [
          -45.3592939,
          -23.8406218
        ]
      }
    },
    {
      "type": "Feature",
      "id": "node/5680605957",
      "properties": {
        "timestamp": "2018-06-10T23:49:53Z",
        "version": 1,
        "changeset": 59723966,
        "waterway": "waterfall",
        "id": "node/5680605957"
      },
      "geometry": {
        "type": "Point",
        "coordinates": [
          -45.3576603,
          -23.8425092
        ]
      }
    },
    {
      "type": "Feature",
      "id": "node/5680605961",
      "properties": {
        "timestamp": "2018-06-10T23:49:53Z",
        "version": 1,
        "changeset": 59723966,
        "waterway": "waterfall",
        "id": "node/5680605961"
      },
      "geometry": {
        "type": "Point",
        "coordinates": [
          -45.3559813,
          -23.8433459
        ]
      }
    },
    {
      "type": "Feature",
      "id": "node/5680605968",
      "properties": {
        "timestamp": "2018-06-10T23:49:53Z",
        "version": 1,
        "changeset": 59723966,
        "waterway": "waterfall",
        "id": "node/5680605968"
      },
      "geometry": {
        "type": "Point",
        "coordinates": [
          -45.3514578,
          -23.8460456
        ]
      }
    },
    {
      "type": "Feature",
      "id": "node/5720610227",
      "properties": {
        "timestamp": "2024-04-15T05:05:28Z",
        "version": 2,
        "changeset": 150017630,
        "name": "Paquetá",
        "tourism": "attraction",
        "waterway": "waterfall",
        "id": "node/5720610227"
      },
      "geometry": {
        "type": "Point",
        "coordinates": [
          -45.4229087,
          -23.8689932
        ]
      }
    },
    {
      "type": "Feature",
      "id": "node/5744695537",
      "properties": {
        "timestamp": "2018-07-07T01:59:38Z",
        "version": 1,
        "changeset": 60480357,
        "height": "80",
        "name": "Cachoeira do Gato",
        "waterway": "waterfall",
        "id": "node/5744695537"
      },
      "geometry": {
        "type": "Point",
        "coordinates": [
          -45.2877056,
          -23.8373974
        ]
      }
    },
    {
      "type": "Feature",
      "id": "node/6397406382",
      "properties": {
        "timestamp": "2020-07-04T16:12:46Z",
        "version": 2,
        "changeset": 87535389,
        "waterway": "waterfall",
        "id": "node/6397406382"
      },
      "geometry": {
        "type": "Point",
        "coordinates": [
          -45.3787943,
          -23.9259456
        ]
      }
    },
    {
      "type": "Feature",
      "id": "node/6412593186",
      "properties": {
        "timestamp": "2023-01-30T22:28:25Z",
        "version": 2,
        "changeset": 131898948,
        "name": "Cachoeira do Veloso",
        "waterway": "waterfall",
        "id": "node/6412593186"
      },
      "geometry": {
        "type": "Point",
        "coordinates": [
          -45.431917,
          -23.884035
        ]
      }
    },
    {
      "type": "Feature",
      "id": "node/6791003167",
      "properties": {
        "timestamp": "2023-01-30T22:28:25Z",
        "version": 2,
        "changeset": 131898948,
        "name": "Cachoeira da Água Branca",
        "waterway": "waterfall",
        "id": "node/6791003167"
      },
      "geometry": {
        "type": "Point",
        "coordinates": [
          -45.3600113,
          -23.833412
        ]
      }
    },
    {
      "type": "Feature",
      "id": "node/6791003168",
      "properties": {
        "timestamp": "2023-01-30T22:28:25Z",
        "version": 2,
        "changeset": 131898948,
        "name": "Cachoeira da Água Branca",
        "waterway": "waterfall",
        "id": "node/6791003168"
      },
      "geometry": {
        "type": "Point",
        "coordinates": [
          -45.3596745,
          -23.8331843
        ]
      }
    },
    {
      "type": "Feature",
      "id": "node/7683041933",
      "properties": {
        "timestamp": "2020-07-04T16:12:46Z",
        "version": 1,
        "changeset": 87535389,
        "waterway": "waterfall",
        "id": "node/7683041933"
      },
      "geometry": {
        "type": "Point",
        "coordinates": [
          -45.3787909,
          -23.9263235
        ]
      }
    },
    {
      "type": "Feature",
      "id": "node/7683041941",
      "properties": {
        "timestamp": "2020-07-04T16:12:46Z",
        "version": 1,
        "changeset": 87535389,
        "waterway": "waterfall",
        "id": "node/7683041941"
      },
      "geometry": {
        "type": "Point",
        "coordinates": [
          -45.378879,
          -23.9269312
        ]
      }
    },
    {
      "type": "Feature",
      "id": "node/11356340669",
      "properties": {
        "timestamp": "2023-11-16T16:57:06Z",
        "version": 1,
        "changeset": 144104658,
        "name": "Cachoeira da Friagem",
        "name:en": "Friagem Waterfall",
        "waterway": "waterfall",
        "id": "node/11356340669"
      },
      "geometry": {
        "type": "Point",
        "coordinates": [
          -45.3297987,
          -23.7586855
        ]
      }
    },
    {
      "type": "Feature",
      "id": "node/11356874370",
      "properties": {
        "timestamp": "2023-11-16T20:18:24Z",
        "version": 1,
        "changeset": 144111537,
        "name": "Cachoeira do Couro de Boi",
        "name:en": "Couro de Boi Waterfall",
        "waterway": "waterfall",
        "id": "node/11356874370"
      },
      "geometry": {
        "type": "Point",
        "coordinates": [
          -45.3333489,
          -23.762626
        ]
      }
    }
  ]
}
