{
  "type": "FeatureCollection",
  "features": [
    {
      "type": "Feature",
      "id": "way/190234345",
      "properties": {
        "timestamp": "2014-03-02T22:17:02Z",
        "version": 3,
        "changeset": 20875774,
        "internet_access": "wlan",
        "name": "Pousada Alfa & Ômega",
        "phone": "+55 62 34461225",
        "tourism": "hotel",
        "website": "http://pousadaalfaeomega.site.com.br/",
        "id": "way/190234345"
      },
      "geometry": {
        "type": "Polygon",
        "coordinates": [
          [
            [
              -47.5157158,
              -14.1354338
            ],
            [
              -47.5158006,
              -14.1358215
            ],
            [
              -47.5155068,
              -14.135826
            ],
            [
              -47.5153463,
              -14.1355924
            ],
            [
              -47.5153296,
              -14.1354602
            ],
            [
              -47.5157158,
              -14.1354338
            ]
          ]
        ]
      }
    },
    {
      "type": "Feature",
      "id": "node/504459657",
      "properties": {
        "timestamp": "2014-04-30T21:56:55Z",
        "version": 2,
        "changeset": 22053065,
        "name": "Pousada Casa das Flores",
        "tourism": "hotel",
        "id": "node/504459657"
      },
      "geometry": {
        "type": "Point",
        "coordinates": [
          -47.8148154,
          -14.1762751
        ]
      }
    },
    {
      "type": "Feature",
      "id": "node/2696687887",
      "properties": {
        "timestamp": "2022-05-25T01:22:35Z",
        "version": 2,
        "changeset": 121450496,
        "name": "Chappada Hotel",
        "phone": "+55 62 34461012;+55 62 96772520",
        "tourism": "hotel",
        "website": "https://www.chappadahotel.com.br/",
        "id": "node/2696687887"
      },
      "geometry": {
        "type": "Point",
        "coordinates": [
          -47.5187636,
          -14.1328603
        ]
      }
    },
    {
      "type": "Feature",
      "id": "node/2696913509",
      "properties": {
        "timestamp": "2014-03-01T22:35:54Z",
        "version": 1,
        "changeset": 20855487,
        "name": "Hotel Europa",
        "phone": "+55 62 34461558",
        "tourism": "hotel",
        "website": "http://hoteleuropadegoias.com.br/",
        "id": "node/2696913509"
      },
      "geometry": {
        "type": "Point",
        "coordinates": [
          -47.5231122,
          -14.1351489
        ]
      }
    },
    {
      "type": "Feature",
      "id": "node/2696913518",
      "properties": {
        "timestamp": "2014-03-01T22:35:54Z",
        "version": 1,
        "changeset": 20855487,
        "name": "Pousada Rubí Violeta",
        "phone": "+55 62 34461200",
        "tourism": "hotel",
        "id": "node/2696913518"
      },
      "geometry": {
        "type": "Point",
        "coordinates": [
          -47.5178306,
          -14.1325893
        ]
      }
    },
    {
      "type": "Feature",
      "id": "node/2697079660",
      "properties": {
        "timestamp": "2022-05-25T01:22:09Z",
        "version": 2,
        "changeset": 121450482,
        "name": "Pousada Camelot",
        "phone": "+55 62 34461581;+55 62 34461449",
        "tourism": "hotel",
        "website": "https://www.pousadacamelot.com.br/",
        "id": "node/2697079660"
      },
      "geometry": {
        "type": "Point",
        "coordinates": [
          -47.5235696,
          -14.130159
        ]
      }
    },
    {
      "type": "Feature",
      "id": "node/2698521422",
      "properties": {
        "timestamp": "2014-03-02T19:54:12Z",
        "version": 1,
        "changeset": 20872366,
        "alt_name": "Pousada das Cerejeiras",
        "name": "Pousada Casa Rosa",
        "tourism": "hotel",
        "id": "node/2698521422"
      },
      "geometry": {
        "type": "Point",
        "coordinates": [
          -47.5073376,
          -14.1304529
        ]
      }
    },
    {
      "type": "Feature",
      "id": "node/2698521430",
      "properties": {
        "timestamp": "2014-03-02T19:54:12Z",
        "version": 1,
        "changeset": 20872366,
        "name": "Pousada Espaço Naves",
        "tourism": "hotel",
        "id": "node/2698521430"
      },
      "geometry": {
        "type": "Point",
        "coordinates": [
          -47.5124961,
          -14.1367114
        ]
      }
    },
    {
      "type": "Feature",
      "id": "node/2698755387",
      "properties": {
        "timestamp": "2014-03-02T22:17:00Z",
        "version": 1,
        "changeset": 20875774,
        "name": "Pousada Alto Paraíso",
        "tourism": "hotel",
        "id": "node/2698755387"
      },
      "geometry": {
        "type": "Point",
        "coordinates": [
          -47.5199845,
          -14.1338875
        ]
      }
    },
    {
      "type": "Feature",
      "id": "node/2698755391",
      "properties": {
        "timestamp": "2014-03-02T22:17:00Z",
        "version": 1,
        "changeset": 20875774,
        "name": "Pousada Calliandra",
        "tourism": "hotel",
        "id": "node/2698755391"
      },
      "geometry": {
        "type": "Point",
        "coordinates": [
          -47.5229479,
          -14.1370412
        ]
      }
    },
    {
      "type": "Feature",
      "id": "node/2698755395",
      "properties": {
        "timestamp": "2014-03-02T22:17:00Z",
        "version": 1,
        "changeset": 20875774,
        "name": "Pousada Maya",
        "tourism": "hotel",
        "id": "node/2698755395"
      },
      "geometry": {
        "type": "Point",
        "coordinates": [
          -47.5113217,
          -14.1397616
        ]
      }
    },
    {
      "type": "Feature",
      "id": "node/2698755398",
      "properties": {
        "timestamp": "2014-03-02T22:17:00Z",
        "version": 1,
        "changeset": 20875774,
        "name": "Pousada Menina Lua",
        "tourism": "hotel",
        "id": "node/2698755398"
      },
      "geometry": {
        "type": "Point",
        "coordinates": [
          -47.5229364,
          -14.1364509
        ]
      }
    },
    {
      "type": "Feature",
      "id": "node/2698755402",
      "properties": {
        "timestamp": "2014-03-02T22:17:00Z",
        "version": 1,
        "changeset": 20875774,
        "name": "Pousada Mirante",
        "tourism": "hotel",
        "id": "node/2698755402"
      },
      "geometry": {
        "type": "Point",
        "coordinates": [
          -47.5130874,
          -14.1382136
        ]
      }
    },
    {
      "type": "Feature",
      "id": "node/2698755407",
      "properties": {
        "timestamp": "2014-03-02T22:17:00Z",
        "version": 1,
        "changeset": 20875774,
        "name": "Pousada Recanto da Grande Paz",
        "tourism": "hotel",
        "id": "node/2698755407"
      },
      "geometry": {
        "type": "Point",
        "coordinates": [
          -47.514084,
          -14.1383856
        ]
      }
    },
    {
      "type": "Feature",
      "id": "node/2698755410",
      "properties": {
        "timestamp": "2014-03-02T22:17:00Z",
        "version": 1,
        "changeset": 20875774,
        "name": "Pousada do Sol",
        "tourism": "hotel",
        "id": "node/2698755410"
      },
      "geometry": {
        "type": "Point",
        "coordinates": [
          -47.5063957,
          -14.1293429
        ]
      }
    },
    {
      "type": "Feature",
      "id": "node/2698755415",
      "properties": {
        "timestamp": "2014-03-02T22:17:00Z",
        "version": 1,
        "changeset": 20875774,
        "name": "Pousada dos Guias",
        "tourism": "hotel",
        "id": "node/2698755415"
      },
      "geometry": {
        "type": "Point",
        "coordinates": [
          -47.5143171,
          -14.1356012
        ]
      }
    },
    {
      "type": "Feature",
      "id": "node/2701999205",
      "properties": {
        "timestamp": "2014-03-04T23:26:12Z",
        "version": 1,
        "changeset": 20921065,
        "name": "Pousada Dona Didi",
        "tourism": "hotel",
        "id": "node/2701999205"
      },
      "geometry": {
        "type": "Point",
        "coordinates": [
          -47.512636,
          -14.1342887
        ]
      }
    },
    {
      "type": "Feature",
      "id": "node/2701999206",
      "properties": {
        "timestamp": "2014-03-04T23:26:13Z",
        "version": 1,
        "changeset": 20921065,
        "name": "Pousada Tradição",
        "tourism": "hotel",
        "id": "node/2701999206"
      },
      "geometry": {
        "type": "Point",
        "coordinates": [
          -47.5119849,
          -14.1343078
        ]
      }
    },
    {
      "type": "Feature",
      "id": "node/2705018558",
      "properties": {
        "timestamp": "2014-03-07T01:19:21Z",
        "version": 1,
        "changeset": 20961703,
        "name": "Pousada Beija Flor",
        "tourism": "hotel",
        "id": "node/2705018558"
      },
      "geometry": {
        "type": "Point",
        "coordinates": [
          -47.5210629,
          -14.1313906
        ]
      }
    },
    {
      "type": "Feature",
      "id": "node/2705018560",
      "properties": {
        "timestamp": "2014-03-07T01:19:21Z",
        "version": 1,
        "changeset": 20961703,
        "name": "Tapindaré",
        "tourism": "hotel",
        "id": "node/2705018560"
      },
      "geometry": {
        "type": "Point",
        "coordinates": [
          -47.5140873,
          -14.1336531
        ]
      }
    },
    {
      "type": "Feature",
      "id": "node/2791003034",
      "properties": {
        "timestamp": "2014-05-05T00:44:09Z",
        "version": 4,
        "changeset": 22137866,
        "name": "Casa da Sucupira",
        "tourism": "hotel",
        "id": "node/2791003034"
      },
      "geometry": {
        "type": "Point",
        "coordinates": [
          -47.8170082,
          -14.1759648
        ]
      }
    },
    {
      "type": "Feature",
      "id": "node/2827756277",
      "properties": {
        "timestamp": "2014-05-05T00:44:09Z",
        "version": 3,
        "changeset": 22137866,
        "name": "Pousada Caminho das Cachoeiras",
        "tourism": "hotel",
        "id": "node/2827756277"
      },
      "geometry": {
        "type": "Point",
        "coordinates": [
          -47.8184614,
          -14.1773729
        ]
      }
    },
    {
      "type": "Feature",
      "id": "node/2827756278",
      "properties": {
        "timestamp": "2014-05-05T00:44:09Z",
        "version": 3,
        "changeset": 22137866,
        "name": "Pousada Caminho do Parque",
        "tourism": "hotel",
        "id": "node/2827756278"
      },
      "geometry": {
        "type": "Point",
        "coordinates": [
          -47.8184544,
          -14.1779191
        ]
      }
    },
    {
      "type": "Feature",
      "id": "node/2827756279",
      "properties": {
        "timestamp": "2014-05-05T00:44:09Z",
        "version": 3,
        "changeset": 22137866,
        "name": "Pousada Cristal da Terra",
        "tourism": "hotel",
        "id": "node/2827756279"
      },
      "geometry": {
        "type": "Point",
        "coordinates": [
          -47.8161115,
          -14.1780798
        ]
      }
    },
    {
      "type": "Feature",
      "id": "node/2827756280",
      "properties": {
        "timestamp": "2014-05-05T00:44:09Z",
        "version": 4,
        "changeset": 22137866,
        "name": "Pousada Trilha Violeta",
        "tourism": "hotel",
        "id": "node/2827756280"
      },
      "geometry": {
        "type": "Point",
        "coordinates": [
          -47.8163753,
          -14.1765509
        ]
      }
    },
    {
      "type": "Feature",
      "id": "node/2827756281",
      "properties": {
        "timestamp": "2014-05-05T00:44:09Z",
        "version": 3,
        "changeset": 22137866,
        "name": "Pousda Bambu Brasil",
        "tourism": "hotel",
        "id": "node/2827756281"
      },
      "geometry": {
        "type": "Point",
        "coordinates": [
          -47.8163369,
          -14.178013
        ]
      }
    },
    {
      "type": "Feature",
      "id": "node/2827756282",
      "properties": {
        "timestamp": "2014-05-05T00:44:09Z",
        "version": 2,
        "changeset": 22137866,
        "name": "Pousda Por do Sol",
        "tourism": "hotel",
        "id": "node/2827756282"
      },
      "geometry": {
        "type": "Point",
        "coordinates": [
          -47.8160568,
          -14.1788433
        ]
      }
    },
    {
      "type": "Feature",
      "id": "node/2837041191",
      "properties": {
        "timestamp": "2014-05-05T00:44:09Z",
        "version": 2,
        "changeset": 22137866,
        "name": "Alecrim do Campo",
        "tourism": "hotel",
        "id": "node/2837041191"
      },
      "geometry": {
        "type": "Point",
        "coordinates": [
          -47.8159654,
          -14.1760951
        ]
      }
    },
    {
      "type": "Feature",
      "id": "node/2837041193",
      "properties": {
        "timestamp": "2014-05-05T00:44:09Z",
        "version": 2,
        "changeset": 22137866,
        "name": "Chalés Céu Azul",
        "tourism": "hotel",
        "id": "node/2837041193"
      },
      "geometry": {
        "type": "Point",
        "coordinates": [
          -47.8165123,
          -14.176701
        ]
      }
    },
    {
      "type": "Feature",
      "id": "node/2837041195",
      "properties": {
        "timestamp": "2014-05-05T00:44:09Z",
        "version": 2,
        "changeset": 22137866,
        "name": "Dona Chiquinha",
        "tourism": "hotel",
        "id": "node/2837041195"
      },
      "geometry": {
        "type": "Point",
        "coordinates": [
          -47.8157888,
          -14.1758986
        ]
      }
    },
    {
      "type": "Feature",
      "id": "node/2837041321",
      "properties": {
        "timestamp": "2014-05-05T00:44:07Z",
        "version": 1,
        "changeset": 22137866,
        "name": "Pousada Shamballa",
        "tourism": "hotel",
        "id": "node/2837041321"
      },
      "geometry": {
        "type": "Point",
        "coordinates": [
          -47.8174221,
          -14.1776164
        ]
      }
    },
    {
      "type": "Feature",
      "id": "node/2837041801",
      "properties": {
        "timestamp": "2014-05-05T00:44:09Z",
        "version": 2,
        "changeset": 22137866,
        "name": "Pousada Mundo dha Lua",
        "tourism": "hotel",
        "id": "node/2837041801"
      },
      "geometry": {
        "type": "Point",
        "coordinates": [
          -47.8159108,
          -14.1762881
        ]
      }
    },
    {
      "type": "Feature",
      "id": "node/2837041802",
      "properties": {
        "timestamp": "2014-05-05T00:44:09Z",
        "version": 2,
        "changeset": 22137866,
        "name": "Pousada Villa São Jorge",
        "tourism": "hotel",
        "id": "node/2837041802"
      },
      "geometry": {
        "type": "Point",
        "coordinates": [
          -47.8159723,
          -14.1763569
        ]
      }
    },
    {
      "type": "Feature",
      "id": "node/2837041820",
      "properties": {
        "timestamp": "2014-05-05T00:32:17Z",
        "version": 1,
        "changeset": 22137785,
        "name": "Águas de Março",
        "tourism": "hotel",
        "id": "node/2837041820"
      },
      "geometry": {
        "type": "Point",
        "coordinates": [
          -47.815559,
          -14.1759607
        ]
      }
    },
    {
      "type": "Feature",
      "id": "node/5302305234",
      "properties": {
        "timestamp": "2017-12-24T16:32:00Z",
        "version": 1,
        "changeset": 54891330,
        "tourism": "hotel",
        "id": "node/5302305234"
      },
      "geometry": {
        "type": "Point",
        "coordinates": [
          -47.5759985,
          -14.1997625
        ]
      }
    },
    {
      "type": "Feature",
      "id": "node/11051344230",
      "properties": {
        "timestamp": "2023-07-17T16:00:02Z",
        "version": 1,
        "changeset": 138628858,
        "addr:city": "Alto Paraíso de Goiás",
        "addr:housenumber": "S/N",
        "addr:postcode": "73770-000",
        "addr:street": "Rua das Emas",
        "addr:suburb": "Vale Azul",
        "brand": "Perinha do Cerrado",
        "email": "perinhadocerrado@gmail.com",
        "internet_access": "wlan",
        "internet_access:fee": "customers",
        "name": "Casa Perinha do Cerrado",
        "reservation": "yes",
        "tourism": "hotel",
        "website": "https://www.instagram.com/perinhadocerrado",
        "id": "node/11051344230"
      },
      "geometry": {
        "type": "Point",
        "coordinates": [
          -47.5081587,
          -14.1442823
        ]
      }
    }
  ]
}
