{
  "type": "FeatureCollection",
  "features": [
    {
      "type": "Feature",
      "id": "node/3429563848",
      "properties": {
        "timestamp": "2020-10-18T10:55:17Z",
        "version": 4,
        "changeset": 92653173,
        "name": "Cachoeira Véu da Noiva",
        "waterway": "waterfall",
        "id": "node/3429563848"
      },
      "geometry": {
        "type": "Point",
        "coordinates": [
          -46.0491062,
          -23.7162693
        ]
      }
    },
    {
      "type": "Feature",
      "id": "node/3429563857",
      "properties": {
        "timestamp": "2020-10-18T10:55:15Z",
        "version": 2,
        "changeset": 92653173,
        "name": "Cachoeira do Elefante",
        "waterway": "waterfall",
        "id": "node/3429563857"
      },
      "geometry": {
        "type": "Point",
        "coordinates": [
          -46.0452405,
          -23.7182061
        ]
      }
    },
    {
      "type": "Feature",
      "id": "node/5437737331",
      "properties": {
        "timestamp": "2019-02-17T21:48:19Z",
        "version": 2,
        "changeset": 67293660,
        "name": "Cachoeira da Light",
        "name:en": "Light Waterfall",
        "waterway": "waterfall",
        "id": "node/5437737331"
      },
      "geometry": {
        "type": "Point",
        "coordinates": [
          -46.0360432,
          -23.6995244
        ]
      }
    },
    {
      "type": "Feature",
      "id": "node/5437737348",
      "properties": {
        "timestamp": "2018-02-26T14:16:12Z",
        "version": 1,
        "changeset": 56691891,
        "height": "10",
        "name": "Cachoeira da Pedra Furada",
        "name:en": "Pedra Furada Waterfall",
        "waterway": "waterfall",
        "width": "30",
        "id": "node/5437737348"
      },
      "geometry": {
        "type": "Point",
        "coordinates": [
          -46.0448304,
          -23.704766
        ]
      }
    },
    {
      "type": "Feature",
      "id": "node/6235095088",
      "properties": {
        "timestamp": "2020-10-18T10:55:18Z",
        "version": 2,
        "changeset": 92653173,
        "name": "Guacá",
        "name:pt": "Cachoeira do Rio Guacá",
        "waterway": "waterfall",
        "id": "node/6235095088"
      },
      "geometry": {
        "type": "Point",
        "coordinates": [
          -46.0238766,
          -23.7077297
        ]
      }
    }
  ]
}
