{
  "type": "FeatureCollection",
  "features": [
    {
      "type": "Feature",
      "id": "node/2298135487",
      "properties": {
        "timestamp": "2017-05-05T18:45:22Z",
        "version": 2,
        "changeset": 48434548,
        "name": "Cachoeira do Panelão",
        "tourism": "attraction",
        "waterway": "waterfall",
        "id": "node/2298135487"
      },
      "geometry": {
        "type": "Point",
        "coordinates": [
          -49.7827405,
          -25.4866244
        ]
      }
    },
    {
      "type": "Feature",
      "id": "node/3118189427",
      "properties": {
        "timestamp": "2017-04-24T12:04:53Z",
        "version": 5,
        "changeset": 48088833,
        "addr:city": "Balsa Nova",
        "name": "Cachoeira do Tamanduá",
        "tourism": "attraction",
        "waterway": "waterfall",
        "id": "node/3118189427"
      },
      "geometry": {
        "type": "Point",
        "coordinates": [
          -49.7221921,
          -25.5315796
        ]
      }
    },
    {
      "type": "Feature",
      "id": "node/4664437520",
      "properties": {
        "timestamp": "2018-01-05T23:23:43Z",
        "version": 2,
        "changeset": 55200402,
        "tourism": "attraction",
        "waterway": "waterfall",
        "id": "node/4664437520"
      },
      "geometry": {
        "type": "Point",
        "coordinates": [
          -49.7057806,
          -25.5154735
        ]
      }
    },
    {
      "type": "Feature",
      "id": "node/6478463641",
      "properties": {
        "timestamp": "2019-05-16T16:19:40Z",
        "version": 2,
        "changeset": 70326080,
        "name": "Cachoeira do Alemão",
        "tourism": "attraction",
        "waterway": "waterfall",
        "id": "node/6478463641"
      },
      "geometry": {
        "type": "Point",
        "coordinates": [
          -49.7996403,
          -25.5561192
        ]
      }
    },
    {
      "type": "Feature",
      "id": "node/8299554762",
      "properties": {
        "timestamp": "2021-01-07T10:36:45Z",
        "version": 1,
        "changeset": 97102486,
        "name": "Cachoeira Di Bruel",
        "tourism": "attraction",
        "waterway": "waterfall",
        "id": "node/8299554762"
      },
      "geometry": {
        "type": "Point",
        "coordinates": [
          -49.7755603,
          -25.5273674
        ]
      }
    }
  ]
}
