{
  "type": "FeatureCollection",
  "features": [
    {
      "type": "Feature",
      "id": "node/513211730",
      "properties": {
        "timestamp": "2019-01-27T20:12:00Z",
        "version": 2,
        "changeset": 66686078,
        "name": "Cachoeira Arara",
        "source": "IBGE",
        "waterway": "waterfall",
        "id": "node/513211730"
      },
      "geometry": {
        "type": "Point",
        "coordinates": [
          -69.16697,
          0.6504934
        ]
      }
    },
    {
      "type": "Feature",
      "id": "node/513211767",
      "properties": {
        "timestamp": "2019-01-27T16:24:43Z",
        "version": 2,
        "changeset": 66681114,
        "name": "Corredeira Araripirá",
        "source": "IBGE",
        "waterway": "waterfall",
        "id": "node/513211767"
      },
      "geometry": {
        "type": "Point",
        "coordinates": [
          -69.1890929,
          0.5722953
        ]
      }
    },
    {
      "type": "Feature",
      "id": "node/683717432",
      "properties": {
        "timestamp": "2024-04-14T22:17:53Z",
        "version": 7,
        "changeset": 150011770,
        "name": "Corredeira Japu",
        "rapids": "4",
        "source": "IBGE",
        "waterway": "waterfall",
        "id": "node/683717432"
      },
      "geometry": {
        "type": "Point",
        "coordinates": [
          -69.750501,
          0.6172821
        ]
      }
    },
    {
      "type": "Feature",
      "id": "node/683717493",
      "properties": {
        "timestamp": "2024-04-14T22:17:53Z",
        "version": 5,
        "changeset": 150011770,
        "name": "Corredeira Breu",
        "rapids": "3",
        "source": "IBGE",
        "waterway": "waterfall",
        "id": "node/683717493"
      },
      "geometry": {
        "type": "Point",
        "coordinates": [
          -69.9202963,
          0.5699202
        ]
      }
    },
    {
      "type": "Feature",
      "id": "node/683717614",
      "properties": {
        "timestamp": "2024-04-14T22:17:53Z",
        "version": 8,
        "changeset": 150011770,
        "name": "Corredeira Jundiá",
        "rapids": "4",
        "source": "IBGE",
        "waterway": "waterfall",
        "id": "node/683717614"
      },
      "geometry": {
        "type": "Point",
        "coordinates": [
          -69.9313916,
          0.5575882
        ]
      }
    },
    {
      "type": "Feature",
      "id": "node/683718609",
      "properties": {
        "timestamp": "2019-01-27T20:12:01Z",
        "version": 3,
        "changeset": 66686078,
        "name": "Corredeira Aracapá",
        "source": "IBGE",
        "waterway": "waterfall",
        "id": "node/683718609"
      },
      "geometry": {
        "type": "Point",
        "coordinates": [
          -69.2621674,
          0.605903
        ]
      }
    },
    {
      "type": "Feature",
      "id": "node/683718817",
      "properties": {
        "timestamp": "2019-01-27T16:24:45Z",
        "version": 2,
        "changeset": 66681114,
        "name": "Corredeira Japaré",
        "source": "IBGE",
        "waterway": "waterfall",
        "id": "node/683718817"
      },
      "geometry": {
        "type": "Point",
        "coordinates": [
          -69.2316915,
          0.6026599
        ]
      }
    },
    {
      "type": "Feature",
      "id": "node/683719119",
      "properties": {
        "timestamp": "2019-01-27T16:24:45Z",
        "version": 3,
        "changeset": 66681114,
        "name": "Corredeira Piraguara",
        "source": "IBGE",
        "waterway": "waterfall",
        "id": "node/683719119"
      },
      "geometry": {
        "type": "Point",
        "coordinates": [
          -69.6622442,
          0.6646675
        ]
      }
    },
    {
      "type": "Feature",
      "id": "node/3663596935",
      "properties": {
        "timestamp": "2015-07-23T20:02:40Z",
        "version": 1,
        "changeset": 32835847,
        "name": "Cachoeira Aru",
        "place": "locality",
        "source": "IBGE",
        "waterway": "waterfall",
        "id": "node/3663596935"
      },
      "geometry": {
        "type": "Point",
        "coordinates": [
          -67.2224813,
          0.6852388
        ]
      }
    },
    {
      "type": "Feature",
      "id": "node/3663596936",
      "properties": {
        "timestamp": "2015-07-23T20:02:40Z",
        "version": 1,
        "changeset": 32835847,
        "name": "Cachoeira Carapanã",
        "place": "locality",
        "source": "IBGE",
        "waterway": "waterfall",
        "id": "node/3663596936"
      },
      "geometry": {
        "type": "Point",
        "coordinates": [
          -67.2841254,
          0.0882659
        ]
      }
    },
    {
      "type": "Feature",
      "id": "node/3663596937",
      "properties": {
        "timestamp": "2015-07-23T20:02:40Z",
        "version": 1,
        "changeset": 32835847,
        "name": "Cachoeira Marapato",
        "place": "locality",
        "source": "IBGE",
        "waterway": "waterfall",
        "id": "node/3663596937"
      },
      "geometry": {
        "type": "Point",
        "coordinates": [
          -67.2417185,
          0.0034521
        ]
      }
    },
    {
      "type": "Feature",
      "id": "node/3663596938",
      "properties": {
        "timestamp": "2015-07-23T20:02:40Z",
        "version": 1,
        "changeset": 32835847,
        "name": "Cachoeira Tamanduá",
        "place": "locality",
        "source": "IBGE",
        "waterway": "waterfall",
        "id": "node/3663596938"
      },
      "geometry": {
        "type": "Point",
        "coordinates": [
          -67.2713674,
          0.0275306
        ]
      }
    },
    {
      "type": "Feature",
      "id": "node/3663789422",
      "properties": {
        "timestamp": "2019-01-27T16:24:46Z",
        "version": 2,
        "changeset": 66681114,
        "alt_name": "Cachoeira da Onça",
        "name": "Cachoeira Iauaretê",
        "source": "IBGE",
        "tourism": "attraction",
        "waterway": "waterfall",
        "id": "node/3663789422"
      },
      "geometry": {
        "type": "Point",
        "coordinates": [
          -69.1997588,
          0.6111888
        ]
      }
    },
    {
      "type": "Feature",
      "id": "node/3663843230",
      "properties": {
        "timestamp": "2015-07-23T22:41:03Z",
        "version": 1,
        "changeset": 32839068,
        "name": "Cachoeira Monfour",
        "place": "locality",
        "source": "IBGE",
        "waterway": "waterfall",
        "id": "node/3663843230"
      },
      "geometry": {
        "type": "Point",
        "coordinates": [
          -69.7158148,
          0.6261384
        ]
      }
    },
    {
      "type": "Feature",
      "id": "node/3665077344",
      "properties": {
        "timestamp": "2020-06-05T14:32:06Z",
        "version": 2,
        "changeset": 86249660,
        "name": "Cachoeira Acutiacanga",
        "place": "locality",
        "source": "IBGE",
        "waterway": "waterfall",
        "id": "node/3665077344"
      },
      "geometry": {
        "type": "Point",
        "coordinates": [
          -67.6657568,
          1.0966366
        ]
      }
    },
    {
      "type": "Feature",
      "id": "node/3665077345",
      "properties": {
        "timestamp": "2015-07-24T20:26:22Z",
        "version": 1,
        "changeset": 32859551,
        "name": "Cachoeira Anuiá",
        "place": "locality",
        "source": "IBGE",
        "waterway": "waterfall",
        "id": "node/3665077345"
      },
      "geometry": {
        "type": "Point",
        "coordinates": [
          -68.12015,
          1.6516933
        ]
      }
    },
    {
      "type": "Feature",
      "id": "node/3665077346",
      "properties": {
        "timestamp": "2015-07-24T20:26:22Z",
        "version": 1,
        "changeset": 32859551,
        "name": "Cachoeira Aro",
        "place": "locality",
        "source": "IBGE",
        "waterway": "waterfall",
        "id": "node/3665077346"
      },
      "geometry": {
        "type": "Point",
        "coordinates": [
          -67.3703174,
          1.8048149
        ]
      }
    },
    {
      "type": "Feature",
      "id": "node/3665077347",
      "properties": {
        "timestamp": "2015-07-24T20:26:22Z",
        "version": 1,
        "changeset": 32859551,
        "name": "Cachoeira Cumati",
        "place": "locality",
        "source": "IBGE",
        "waterway": "waterfall",
        "id": "node/3665077347"
      },
      "geometry": {
        "type": "Point",
        "coordinates": [
          -67.2384059,
          1.3379802
        ]
      }
    },
    {
      "type": "Feature",
      "id": "node/3665077348",
      "properties": {
        "timestamp": "2015-07-24T20:26:22Z",
        "version": 1,
        "changeset": 32859551,
        "name": "Cachoeira Iamá Ponta",
        "place": "locality",
        "source": "IBGE",
        "waterway": "waterfall",
        "id": "node/3665077348"
      },
      "geometry": {
        "type": "Point",
        "coordinates": [
          -68.1209418,
          1.6274745
        ]
      }
    },
    {
      "type": "Feature",
      "id": "node/3665077349",
      "properties": {
        "timestamp": "2015-07-24T20:26:22Z",
        "version": 1,
        "changeset": 32859551,
        "name": "Cachoeira Juruti",
        "place": "locality",
        "source": "IBGE",
        "waterway": "waterfall",
        "id": "node/3665077349"
      },
      "geometry": {
        "type": "Point",
        "coordinates": [
          -67.5238259,
          1.031806
        ]
      }
    },
    {
      "type": "Feature",
      "id": "node/3665077350",
      "properties": {
        "timestamp": "2015-07-24T20:26:22Z",
        "version": 1,
        "changeset": 32859551,
        "name": "Cachoeira Malacacheta",
        "place": "locality",
        "source": "IBGE",
        "waterway": "waterfall",
        "id": "node/3665077350"
      },
      "geometry": {
        "type": "Point",
        "coordinates": [
          -67.9459717,
          1.3503139
        ]
      }
    },
    {
      "type": "Feature",
      "id": "node/3665077351",
      "properties": {
        "timestamp": "2015-07-24T20:26:22Z",
        "version": 1,
        "changeset": 32859551,
        "name": "Cachoeira Massarico",
        "place": "locality",
        "source": "IBGE",
        "waterway": "waterfall",
        "id": "node/3665077351"
      },
      "geometry": {
        "type": "Point",
        "coordinates": [
          -67.7064568,
          1.1113308
        ]
      }
    },
    {
      "type": "Feature",
      "id": "node/3665077352",
      "properties": {
        "timestamp": "2015-07-24T20:26:22Z",
        "version": 1,
        "changeset": 32859551,
        "name": "Cachoeira Pamá",
        "place": "locality",
        "source": "IBGE",
        "waterway": "waterfall",
        "id": "node/3665077352"
      },
      "geometry": {
        "type": "Point",
        "coordinates": [
          -67.3446042,
          1.8028369
        ]
      }
    },
    {
      "type": "Feature",
      "id": "node/3665077354",
      "properties": {
        "timestamp": "2015-07-24T20:26:22Z",
        "version": 1,
        "changeset": 32859551,
        "name": "Cachoeira Quati",
        "place": "locality",
        "source": "IBGE",
        "waterway": "waterfall",
        "id": "node/3665077354"
      },
      "geometry": {
        "type": "Point",
        "coordinates": [
          -67.2387884,
          1.6955678
        ]
      }
    },
    {
      "type": "Feature",
      "id": "node/3665077355",
      "properties": {
        "timestamp": "2015-07-24T20:26:22Z",
        "version": 1,
        "changeset": 32859551,
        "name": "Cachoeira Taiaçu",
        "place": "locality",
        "source": "IBGE",
        "waterway": "waterfall",
        "id": "node/3665077355"
      },
      "geometry": {
        "type": "Point",
        "coordinates": [
          -68.0697371,
          1.383714
        ]
      }
    },
    {
      "type": "Feature",
      "id": "node/3665077356",
      "properties": {
        "timestamp": "2015-07-24T20:26:22Z",
        "version": 1,
        "changeset": 32859551,
        "name": "Cachoeira Tiapanã",
        "place": "locality",
        "source": "IBGE",
        "waterway": "waterfall",
        "id": "node/3665077356"
      },
      "geometry": {
        "type": "Point",
        "coordinates": [
          -67.454391,
          1.8414745
        ]
      }
    },
    {
      "type": "Feature",
      "id": "node/3665077357",
      "properties": {
        "timestamp": "2015-07-24T20:26:22Z",
        "version": 1,
        "changeset": 32859551,
        "name": "Cachoeira Tunuí",
        "place": "locality",
        "source": "IBGE",
        "waterway": "waterfall",
        "id": "node/3665077357"
      },
      "geometry": {
        "type": "Point",
        "coordinates": [
          -68.1517667,
          1.3853398
        ]
      }
    },
    {
      "type": "Feature",
      "id": "node/3665077358",
      "properties": {
        "timestamp": "2015-07-24T20:26:23Z",
        "version": 1,
        "changeset": 32859551,
        "name": "Cachoeira do Cupim",
        "place": "locality",
        "source": "IBGE",
        "waterway": "waterfall",
        "id": "node/3665077358"
      },
      "geometry": {
        "type": "Point",
        "coordinates": [
          -67.8752323,
          1.2579869
        ]
      }
    },
    {
      "type": "Feature",
      "id": "node/4163168847",
      "properties": {
        "timestamp": "2022-10-08T19:36:14Z",
        "version": 3,
        "changeset": 127218515,
        "name": "Cachoeira Bacabal",
        "waterway": "waterfall",
        "id": "node/4163168847"
      },
      "geometry": {
        "type": "Point",
        "coordinates": [
          -66.1648193,
          0.6397254
        ]
      }
    },
    {
      "type": "Feature",
      "id": "node/4707689405",
      "properties": {
        "timestamp": "2019-01-27T16:24:49Z",
        "version": 2,
        "changeset": 66681114,
        "name": "Cachoeira Pato",
        "source": "IBGE",
        "waterway": "waterfall",
        "id": "node/4707689405"
      },
      "geometry": {
        "type": "Point",
        "coordinates": [
          -69.5897104,
          0.6527926
        ]
      }
    },
    {
      "type": "Feature",
      "id": "node/5821566744",
      "properties": {
        "timestamp": "2018-08-09T22:51:34Z",
        "version": 1,
        "changeset": 61515054,
        "waterway": "waterfall",
        "id": "node/5821566744"
      },
      "geometry": {
        "type": "Point",
        "coordinates": [
          -67.0245593,
          -0.2380349
        ]
      }
    }
  ]
}
