{
  "type": "FeatureCollection",
  "features": [
    {
      "type": "Feature",
      "id": "node/9573105017",
      "properties": {
        "timestamp": "2022-03-12T16:29:03Z",
        "version": 1,
        "changeset": 118404366,
        "addr:street": "Rua Caio Prado",
        "amenity": "doctors",
        "name": "CEMI Clínica Especialidades Médicas de Itapipoca",
        "id": "node/9573105017"
      },
      "geometry": {
        "type": "Point",
        "coordinates": [
          -39.5780687,
          -3.4991922
        ]
      }
    },
    {
      "type": "Feature",
      "id": "node/9573110917",
      "properties": {
        "timestamp": "2022-03-12T16:35:09Z",
        "version": 1,
        "changeset": 118404603,
        "addr:street": "Rua Pergentina Araújo",
        "amenity": "doctors",
        "name": "Clínica Itaimagem",
        "id": "node/9573110917"
      },
      "geometry": {
        "type": "Point",
        "coordinates": [
          -39.5793135,
          -3.5025535
        ]
      }
    },
    {
      "type": "Feature",
      "id": "node/9573155642",
      "properties": {
        "timestamp": "2022-03-12T17:18:11Z",
        "version": 1,
        "changeset": 118406214,
        "addr:street": "Avenida Monsenhor Tabosa",
        "amenity": "doctors",
        "healthcare": "doctor",
        "name": "CNIT",
        "id": "node/9573155642"
      },
      "geometry": {
        "type": "Point",
        "coordinates": [
          -39.5652018,
          -3.4821228
        ]
      }
    },
    {
      "type": "Feature",
      "id": "node/9701700092",
      "properties": {
        "timestamp": "2022-04-28T21:56:02Z",
        "version": 1,
        "changeset": 120324095,
        "amenity": "doctors",
        "healthcare": "doctor",
        "name": "UBS Calugi",
        "id": "node/9701700092"
      },
      "geometry": {
        "type": "Point",
        "coordinates": [
          -39.6316102,
          -3.3618455
        ]
      }
    },
    {
      "type": "Feature",
      "id": "node/9871060717",
      "properties": {
        "timestamp": "2022-07-06T20:14:54Z",
        "version": 1,
        "changeset": 123291988,
        "addr:street": "Rua João Araujo Teixeira Alves",
        "amenity": "doctors",
        "name": "Clínica Dr. Costa campos",
        "id": "node/9871060717"
      },
      "geometry": {
        "type": "Point",
        "coordinates": [
          -39.5877328,
          -3.4978796
        ]
      }
    }
  ]
}
