{
  "type": "FeatureCollection",
  "features": [
    {
      "type": "Feature",
      "id": "node/4653825496",
      "properties": {
        "timestamp": "2017-02-01T20:01:19Z",
        "version": 1,
        "changeset": 45725965,
        "historic": "monument",
        "name": "Cristo Redentor",
        "id": "node/4653825496"
      },
      "geometry": {
        "type": "Point",
        "coordinates": [
          -48.0508732,
          -23.5933861
        ]
      }
    },
    {
      "type": "Feature",
      "id": "node/4653841116",
      "properties": {
        "timestamp": "2017-02-01T19:45:36Z",
        "version": 1,
        "changeset": 45725557,
        "historic": "monument",
        "name": "Estátua Teddy Vieira",
        "id": "node/4653841116"
      },
      "geometry": {
        "type": "Point",
        "coordinates": [
          -48.051784,
          -23.591029
        ]
      }
    },
    {
      "type": "Feature",
      "id": "node/4653841117",
      "properties": {
        "timestamp": "2017-02-01T19:45:36Z",
        "version": 1,
        "changeset": 45725557,
        "historic": "monument",
        "name": "Estátua Primeira Aviadora do Brasil",
        "id": "node/4653841117"
      },
      "geometry": {
        "type": "Point",
        "coordinates": [
          -48.0518684,
          -23.5907794
        ]
      }
    },
    {
      "type": "Feature",
      "id": "node/4664103831",
      "properties": {
        "timestamp": "2017-02-04T19:38:33Z",
        "version": 1,
        "changeset": 45813578,
        "historic": "monument",
        "name": "Monumento Rotary Club",
        "id": "node/4664103831"
      },
      "geometry": {
        "type": "Point",
        "coordinates": [
          -48.0671226,
          -23.5949156
        ]
      }
    },
    {
      "type": "Feature",
      "id": "node/4664103832",
      "properties": {
        "timestamp": "2017-02-04T19:38:33Z",
        "version": 1,
        "changeset": 45813578,
        "historic": "monument",
        "name": "Monumento Lions Club",
        "id": "node/4664103832"
      },
      "geometry": {
        "type": "Point",
        "coordinates": [
          -48.0655817,
          -23.5936829
        ]
      }
    },
    {
      "type": "Feature",
      "id": "node/4678877661",
      "properties": {
        "timestamp": "2017-02-10T17:58:23Z",
        "version": 1,
        "changeset": 45979990,
        "historic": "monument",
        "name": "Estátua Marechal Deodoro",
        "id": "node/4678877661"
      },
      "geometry": {
        "type": "Point",
        "coordinates": [
          -48.0535114,
          -23.5906415
        ]
      }
    },
    {
      "type": "Feature",
      "id": "node/5812887778",
      "properties": {
        "timestamp": "2020-05-23T00:21:47Z",
        "version": 2,
        "changeset": 85634651,
        "historic": "monument",
        "name": "Maçonaria",
        "id": "node/5812887778"
      },
      "geometry": {
        "type": "Point",
        "coordinates": [
          -48.0174872,
          -23.5731259
        ]
      }
    },
    {
      "type": "Feature",
      "id": "node/6216397113",
      "properties": {
        "timestamp": "2020-06-28T01:18:46Z",
        "version": 3,
        "changeset": 87239000,
        "historic": "monument",
        "name": "Marco da Paz",
        "id": "node/6216397113"
      },
      "geometry": {
        "type": "Point",
        "coordinates": [
          -48.0201877,
          -23.5715368
        ]
      }
    },
    {
      "type": "Feature",
      "id": "node/6267004316",
      "properties": {
        "timestamp": "2019-06-11T17:28:26Z",
        "version": 2,
        "changeset": 71151124,
        "historic": "monument",
        "name": "Relógio Solar",
        "id": "node/6267004316"
      },
      "geometry": {
        "type": "Point",
        "coordinates": [
          -48.030509,
          -23.597184
        ]
      }
    },
    {
      "type": "Feature",
      "id": "node/7024307091",
      "properties": {
        "timestamp": "2020-04-13T03:01:56Z",
        "version": 2,
        "changeset": 83444514,
        "historic": "monument",
        "name": "Nossa Senhora de Lourdes",
        "id": "node/7024307091"
      },
      "geometry": {
        "type": "Point",
        "coordinates": [
          -48.0453117,
          -23.5850182
        ]
      }
    },
    {
      "type": "Feature",
      "id": "node/7550195322",
      "properties": {
        "timestamp": "2024-09-26T03:13:38Z",
        "version": 4,
        "changeset": 157107446,
        "historic": "monument",
        "name": "50 anos do Rotary Club",
        "id": "node/7550195322"
      },
      "geometry": {
        "type": "Point",
        "coordinates": [
          -47.9865031,
          -23.5710322
        ]
      }
    },
    {
      "type": "Feature",
      "id": "node/7826163270",
      "properties": {
        "timestamp": "2020-08-19T13:58:14Z",
        "version": 1,
        "changeset": 89638794,
        "alt_name": "Monumento ao Fernando Prestes e Júlio Prestes",
        "historic": "monument",
        "name": "Monumento ao Tropeiro",
        "id": "node/7826163270"
      },
      "geometry": {
        "type": "Point",
        "coordinates": [
          -48.0474331,
          -23.5882029
        ]
      }
    }
  ]
}
