{
  "type": "FeatureCollection",
  "features": [
    {
      "type": "Feature",
      "id": "node/9021832934",
      "properties": {
        "timestamp": "2021-08-20T06:00:04Z",
        "version": 1,
        "changeset": 109965647,
        "name": "Pousada Dª Inês",
        "tourism": "hotel",
        "id": "node/9021832934"
      },
      "geometry": {
        "type": "Point",
        "coordinates": [
          -45.6218658,
          -22.6038581
        ]
      }
    },
    {
      "type": "Feature",
      "id": "node/9021832935",
      "properties": {
        "timestamp": "2021-08-20T06:00:04Z",
        "version": 1,
        "changeset": 109965647,
        "name": "Pousada Candelária",
        "tourism": "hotel",
        "id": "node/9021832935"
      },
      "geometry": {
        "type": "Point",
        "coordinates": [
          -45.64026,
          -22.5850856
        ]
      }
    },
    {
      "type": "Feature",
      "id": "node/9021832937",
      "properties": {
        "timestamp": "2021-08-20T06:00:04Z",
        "version": 1,
        "changeset": 109965647,
        "name": "Casa Rosalina",
        "tourism": "hotel",
        "id": "node/9021832937"
      },
      "geometry": {
        "type": "Point",
        "coordinates": [
          -45.6375429,
          -22.5841222
        ]
      }
    },
    {
      "type": "Feature",
      "id": "node/9266190667",
      "properties": {
        "timestamp": "2021-11-19T09:23:45Z",
        "version": 1,
        "changeset": 113981787,
        "name": "Pousada Novo Amanhecer",
        "tourism": "hotel",
        "id": "node/9266190667"
      },
      "geometry": {
        "type": "Point",
        "coordinates": [
          -45.6285007,
          -22.5874136
        ]
      }
    },
    {
      "type": "Feature",
      "id": "node/9266190668",
      "properties": {
        "timestamp": "2021-11-19T09:23:45Z",
        "version": 1,
        "changeset": 113981787,
        "name": "Pousada Serra de Minas",
        "tourism": "hotel",
        "id": "node/9266190668"
      },
      "geometry": {
        "type": "Point",
        "coordinates": [
          -45.6365956,
          -22.5845706
        ]
      }
    },
    {
      "type": "Feature",
      "id": "node/9266190669",
      "properties": {
        "timestamp": "2021-11-19T09:23:45Z",
        "version": 1,
        "changeset": 113981787,
        "name": "Pousada da Lua",
        "tourism": "hotel",
        "id": "node/9266190669"
      },
      "geometry": {
        "type": "Point",
        "coordinates": [
          -45.633967,
          -22.5824259
        ]
      }
    },
    {
      "type": "Feature",
      "id": "node/9480427924",
      "properties": {
        "timestamp": "2022-02-05T08:16:15Z",
        "version": 1,
        "changeset": 117034804,
        "name": "Pousada NS das Candeias",
        "tourism": "hotel",
        "id": "node/9480427924"
      },
      "geometry": {
        "type": "Point",
        "coordinates": [
          -45.6356787,
          -22.5831008
        ]
      }
    },
    {
      "type": "Feature",
      "id": "node/11536314544",
      "properties": {
        "timestamp": "2024-01-21T08:57:32Z",
        "version": 1,
        "changeset": 146504283,
        "name": "Csa de FAMILIA",
        "tourism": "hotel",
        "id": "node/11536314544"
      },
      "geometry": {
        "type": "Point",
        "coordinates": [
          -45.6366124,
          -22.5833226
        ]
      }
    },
    {
      "type": "Feature",
      "id": "node/11804149288",
      "properties": {
        "timestamp": "2024-04-09T05:56:16Z",
        "version": 1,
        "changeset": 149760466,
        "tourism": "hotel",
        "id": "node/11804149288"
      },
      "geometry": {
        "type": "Point",
        "coordinates": [
          -45.617889,
          -22.6122544
        ]
      }
    }
  ]
}
