{
  "type": "FeatureCollection",
  "features": [
    {
      "type": "Feature",
      "id": "node/7602590326",
      "properties": {
        "timestamp": "2021-02-20T07:07:48Z",
        "version": 2,
        "changeset": 99628106,
        "amenity": "pharmacy",
        "healthcare": "pharmacy",
        "name": "Farmacia Fragoso Matriz",
        "id": "node/7602590326"
      },
      "geometry": {
        "type": "Point",
        "coordinates": [
          -38.4488202,
          -6.7315588
        ]
      }
    },
    {
      "type": "Feature",
      "id": "node/7602591792",
      "properties": {
        "timestamp": "2021-02-20T07:07:48Z",
        "version": 2,
        "changeset": 99628106,
        "amenity": "pharmacy",
        "healthcare": "pharmacy",
        "name": "Farmácia Fragoso II",
        "id": "node/7602591792"
      },
      "geometry": {
        "type": "Point",
        "coordinates": [
          -38.4512769,
          -6.7253529
        ]
      }
    },
    {
      "type": "Feature",
      "id": "node/7602592387",
      "properties": {
        "timestamp": "2021-02-20T07:07:48Z",
        "version": 2,
        "changeset": 99628106,
        "amenity": "pharmacy",
        "healthcare": "pharmacy",
        "name": "Farmácia Noite e Dia",
        "id": "node/7602592387"
      },
      "geometry": {
        "type": "Point",
        "coordinates": [
          -38.4493234,
          -6.7319743
        ]
      }
    },
    {
      "type": "Feature",
      "id": "node/7784451185",
      "properties": {
        "timestamp": "2021-02-20T07:07:48Z",
        "version": 2,
        "changeset": 99628106,
        "amenity": "pharmacy",
        "healthcare": "pharmacy",
        "name": "Farmacia Fragoso 2",
        "id": "node/7784451185"
      },
      "geometry": {
        "type": "Point",
        "coordinates": [
          -38.4511708,
          -6.7253892
        ]
      }
    },
    {
      "type": "Feature",
      "id": "node/7784567185",
      "properties": {
        "timestamp": "2021-02-20T07:07:48Z",
        "version": 2,
        "changeset": 99628106,
        "amenity": "pharmacy",
        "healthcare": "pharmacy",
        "name": "Farmacia Fragoso 1",
        "id": "node/7784567185"
      },
      "geometry": {
        "type": "Point",
        "coordinates": [
          -38.448243,
          -6.7306014
        ]
      }
    },
    {
      "type": "Feature",
      "id": "node/7784594986",
      "properties": {
        "timestamp": "2021-02-20T07:07:48Z",
        "version": 2,
        "changeset": 99628106,
        "amenity": "pharmacy",
        "healthcare": "pharmacy",
        "name": "Farmacia Dia e Noite",
        "id": "node/7784594986"
      },
      "geometry": {
        "type": "Point",
        "coordinates": [
          -38.4488128,
          -6.7314876
        ]
      }
    },
    {
      "type": "Feature",
      "id": "node/7784663485",
      "properties": {
        "timestamp": "2021-02-20T07:07:48Z",
        "version": 2,
        "changeset": 99628106,
        "amenity": "pharmacy",
        "healthcare": "pharmacy",
        "name": "Farmacia Estrela",
        "id": "node/7784663485"
      },
      "geometry": {
        "type": "Point",
        "coordinates": [
          -38.4479321,
          -6.7319002
        ]
      }
    },
    {
      "type": "Feature",
      "id": "node/9839886017",
      "properties": {
        "timestamp": "2022-06-22T21:32:28Z",
        "version": 1,
        "changeset": 122729944,
        "amenity": "pharmacy",
        "name": "HiperFarma",
        "id": "node/9839886017"
      },
      "geometry": {
        "type": "Point",
        "coordinates": [
          -38.4478751,
          -6.7322488
        ]
      }
    }
  ]
}
