{
  "type": "FeatureCollection",
  "features": [
    {
      "type": "Feature",
      "id": "node/2802686685",
      "properties": {
        "timestamp": "2014-04-20T20:05:41Z",
        "version": 2,
        "changeset": 21822751,
        "name": "Prefeitura Municipal de Barra do Garças",
        "office": "government",
        "id": "node/2802686685"
      },
      "geometry": {
        "type": "Point",
        "coordinates": [
          -52.2646571,
          -15.8937527
        ]
      }
    },
    {
      "type": "Feature",
      "id": "node/2823691157",
      "properties": {
        "timestamp": "2014-05-04T00:23:08Z",
        "version": 2,
        "changeset": 22116439,
        "name": "Cartório do Primeiro Ofício",
        "office": "government",
        "id": "node/2823691157"
      },
      "geometry": {
        "type": "Point",
        "coordinates": [
          -52.256079,
          -15.8922452
        ]
      }
    },
    {
      "type": "Feature",
      "id": "node/2834830911",
      "properties": {
        "timestamp": "2014-05-03T23:25:09Z",
        "version": 1,
        "changeset": 22116024,
        "name": "Terceiro Ciretran - Barra do Garças",
        "office": "government",
        "id": "node/2834830911"
      },
      "geometry": {
        "type": "Point",
        "coordinates": [
          -52.2900578,
          -15.879483
        ]
      }
    },
    {
      "type": "Feature",
      "id": "node/2834850992",
      "properties": {
        "timestamp": "2014-05-04T00:23:08Z",
        "version": 1,
        "changeset": 22116439,
        "name": "Cartório do Segundo Ofício",
        "office": "government",
        "id": "node/2834850992"
      },
      "geometry": {
        "type": "Point",
        "coordinates": [
          -52.2577975,
          -15.889154
        ]
      }
    },
    {
      "type": "Feature",
      "id": "node/2838261295",
      "properties": {
        "timestamp": "2014-05-05T18:58:31Z",
        "version": 1,
        "changeset": 22152620,
        "name": "Fórum da Comarca de Barra do Garças",
        "office": "government",
        "source": "Survey, Bing",
        "id": "node/2838261295"
      },
      "geometry": {
        "type": "Point",
        "coordinates": [
          -52.2769593,
          -15.8973896
        ]
      }
    },
    {
      "type": "Feature",
      "id": "node/2838261296",
      "properties": {
        "timestamp": "2014-05-05T18:58:31Z",
        "version": 1,
        "changeset": 22152620,
        "name": "TRE",
        "office": "government",
        "id": "node/2838261296"
      },
      "geometry": {
        "type": "Point",
        "coordinates": [
          -52.2771931,
          -15.8969897
        ]
      }
    },
    {
      "type": "Feature",
      "id": "node/2838261297",
      "properties": {
        "timestamp": "2014-05-05T18:58:31Z",
        "version": 1,
        "changeset": 22152620,
        "name": "Promotoria de Justiça",
        "office": "government",
        "id": "node/2838261297"
      },
      "geometry": {
        "type": "Point",
        "coordinates": [
          -52.2765843,
          -15.8978823
        ]
      }
    },
    {
      "type": "Feature",
      "id": "node/2838261298",
      "properties": {
        "timestamp": "2014-05-05T18:58:31Z",
        "version": 1,
        "changeset": 22152620,
        "name": "OAB",
        "office": "government",
        "id": "node/2838261298"
      },
      "geometry": {
        "type": "Point",
        "coordinates": [
          -52.2763536,
          -15.8975392
        ]
      }
    }
  ]
}
