{
  "type": "FeatureCollection",
  "features": [
    {
      "type": "Feature",
      "id": "node/2420200354",
      "properties": {
        "timestamp": "2013-08-15T20:18:36Z",
        "version": 1,
        "changeset": 17364367,
        "name": "Pousada Piemonte",
        "tourism": "hotel",
        "website": "http://www.pousadapiemonte.com.br/",
        "id": "node/2420200354"
      },
      "geometry": {
        "type": "Point",
        "coordinates": [
          -44.5120833,
          -22.4568978
        ]
      }
    },
    {
      "type": "Feature",
      "id": "node/2420227769",
      "properties": {
        "timestamp": "2019-03-04T00:18:51Z",
        "version": 2,
        "changeset": 67750338,
        "name": "Hotel City Park",
        "phone": "+55-24-3351-1181",
        "tourism": "hotel",
        "website": "https://www.cityparkhotel.com.br/",
        "id": "node/2420227769"
      },
      "geometry": {
        "type": "Point",
        "coordinates": [
          -44.5293898,
          -22.4382738
        ]
      }
    },
    {
      "type": "Feature",
      "id": "node/2420227772",
      "properties": {
        "timestamp": "2023-11-19T03:50:24Z",
        "version": 2,
        "changeset": 144195558,
        "addr:housenumber": "791",
        "addr:street": "Avenida das Mangueiras",
        "name": "Hotel Moradas do Penedo",
        "phone": "+55-24-3351-1333",
        "tourism": "hotel",
        "website": "https://www.moradasdopenedo.com.br/",
        "id": "node/2420227772"
      },
      "geometry": {
        "type": "Point",
        "coordinates": [
          -44.5279639,
          -22.4383819
        ]
      }
    },
    {
      "type": "Feature",
      "id": "node/3913309258",
      "properties": {
        "timestamp": "2015-12-27T20:03:53Z",
        "version": 1,
        "changeset": 36204748,
        "name": "Hotel Britannia",
        "source": "survey",
        "tourism": "hotel",
        "id": "node/3913309258"
      },
      "geometry": {
        "type": "Point",
        "coordinates": [
          -44.5208187,
          -22.4422715
        ]
      }
    },
    {
      "type": "Feature",
      "id": "node/3913309259",
      "properties": {
        "timestamp": "2015-12-27T20:03:53Z",
        "version": 1,
        "changeset": 36204748,
        "name": "Hotel Cachoeira",
        "tourism": "hotel",
        "id": "node/3913309259"
      },
      "geometry": {
        "type": "Point",
        "coordinates": [
          -44.5316088,
          -22.428413
        ]
      }
    },
    {
      "type": "Feature",
      "id": "node/3913309260",
      "properties": {
        "timestamp": "2015-12-27T20:03:53Z",
        "version": 1,
        "changeset": 36204748,
        "name": "Hotel Daniela",
        "source": "survey",
        "tourism": "hotel",
        "id": "node/3913309260"
      },
      "geometry": {
        "type": "Point",
        "coordinates": [
          -44.5318303,
          -22.4278769
        ]
      }
    },
    {
      "type": "Feature",
      "id": "node/3913309261",
      "properties": {
        "timestamp": "2017-05-22T17:00:50Z",
        "version": 2,
        "changeset": 48894304,
        "name": "Hotel Girassol",
        "source": "survey",
        "tourism": "hotel",
        "id": "node/3913309261"
      },
      "geometry": {
        "type": "Point",
        "coordinates": [
          -44.516463,
          -22.4412877
        ]
      }
    },
    {
      "type": "Feature",
      "id": "node/3913309262",
      "properties": {
        "timestamp": "2019-04-21T22:07:32Z",
        "version": 3,
        "changeset": 69435988,
        "name": "Hotel Rio das Pedras",
        "source": "survey",
        "tourism": "hotel",
        "id": "node/3913309262"
      },
      "geometry": {
        "type": "Point",
        "coordinates": [
          -44.5217654,
          -22.4422406
        ]
      }
    },
    {
      "type": "Feature",
      "id": "node/3913327118",
      "properties": {
        "timestamp": "2015-12-27T20:26:41Z",
        "version": 1,
        "changeset": 36205187,
        "name": "Hotel Campestre",
        "note:pt": "parece abandonado",
        "tourism": "hotel",
        "id": "node/3913327118"
      },
      "geometry": {
        "type": "Point",
        "coordinates": [
          -44.5345248,
          -22.4255353
        ]
      }
    },
    {
      "type": "Feature",
      "id": "node/4829687825",
      "properties": {
        "timestamp": "2017-05-01T23:13:26Z",
        "version": 1,
        "changeset": 48320262,
        "name": "Hotel Pousada Cruzeiro do Sul",
        "tourism": "hotel",
        "id": "node/4829687825"
      },
      "geometry": {
        "type": "Point",
        "coordinates": [
          -44.5837431,
          -22.3265188
        ]
      }
    },
    {
      "type": "Feature",
      "id": "node/5143317762",
      "properties": {
        "timestamp": "2017-10-02T15:18:17Z",
        "version": 2,
        "changeset": 52567338,
        "name": "Hotel Donati",
        "tourism": "hotel",
        "id": "node/5143317762"
      },
      "geometry": {
        "type": "Point",
        "coordinates": [
          -44.6005676,
          -22.4436707
        ]
      }
    },
    {
      "type": "Feature",
      "id": "node/5143406589",
      "properties": {
        "timestamp": "2017-10-02T16:08:39Z",
        "version": 1,
        "changeset": 52568576,
        "name": "Hotel do Ypê",
        "tourism": "hotel",
        "id": "node/5143406589"
      },
      "geometry": {
        "type": "Point",
        "coordinates": [
          -44.6154715,
          -22.43197
        ]
      }
    },
    {
      "type": "Feature",
      "id": "node/6327967954",
      "properties": {
        "timestamp": "2019-04-21T20:51:08Z",
        "version": 2,
        "changeset": 69434630,
        "name": "Quinta da Mantiqueira",
        "tourism": "hotel",
        "id": "node/6327967954"
      },
      "geometry": {
        "type": "Point",
        "coordinates": [
          -44.5249192,
          -22.4502028
        ]
      }
    },
    {
      "type": "Feature",
      "id": "node/6419675619",
      "properties": {
        "timestamp": "2019-04-21T20:51:07Z",
        "version": 1,
        "changeset": 69434630,
        "name": "Flor de Penedo",
        "tourism": "hotel",
        "id": "node/6419675619"
      },
      "geometry": {
        "type": "Point",
        "coordinates": [
          -44.5252932,
          -22.4510506
        ]
      }
    },
    {
      "type": "Feature",
      "id": "node/6419675620",
      "properties": {
        "timestamp": "2019-04-21T20:51:07Z",
        "version": 1,
        "changeset": 69434630,
        "name": "Chalé da Roça",
        "tourism": "hotel",
        "id": "node/6419675620"
      },
      "geometry": {
        "type": "Point",
        "coordinates": [
          -44.525316,
          -22.4508944
        ]
      }
    },
    {
      "type": "Feature",
      "id": "node/6419675628",
      "properties": {
        "timestamp": "2019-04-21T20:51:07Z",
        "version": 1,
        "changeset": 69434630,
        "name": "Casa do Papai Noel",
        "tourism": "hotel",
        "id": "node/6419675628"
      },
      "geometry": {
        "type": "Point",
        "coordinates": [
          -44.5247736,
          -22.4437765
        ]
      }
    }
  ]
}
