{
  "type": "FeatureCollection",
  "features": [
    {
      "type": "Feature",
      "id": "node/6824377006",
      "properties": {
        "timestamp": "2022-02-03T03:41:43Z",
        "version": 2,
        "changeset": 116943129,
        "amenity": "school",
        "id": "node/6824377006"
      },
      "geometry": {
        "type": "Point",
        "coordinates": [
          -50.9235072,
          -29.6370184
        ]
      }
    },
    {
      "type": "Feature",
      "id": "node/6824377007",
      "properties": {
        "timestamp": "2019-09-26T01:55:46Z",
        "version": 1,
        "changeset": 74933599,
        "amenity": "school",
        "name": "Escola Munícipal de Ensino Fundamental Francisca Isabel",
        "id": "node/6824377007"
      },
      "geometry": {
        "type": "Point",
        "coordinates": [
          -50.9208767,
          -29.6355201
        ]
      }
    },
    {
      "type": "Feature",
      "id": "node/8587082984",
      "properties": {
        "timestamp": "2021-04-02T16:53:41Z",
        "version": 1,
        "changeset": 102207158,
        "amenity": "school",
        "id": "node/8587082984"
      },
      "geometry": {
        "type": "Point",
        "coordinates": [
          -50.9298591,
          -29.6139568
        ]
      }
    },
    {
      "type": "Feature",
      "id": "node/8587085916",
      "properties": {
        "timestamp": "2023-02-10T19:02:02Z",
        "version": 3,
        "changeset": 132376509,
        "addr:city": "Araricá",
        "addr:street": "Avenida José Antônio de Oliveira Neto",
        "addr:suburb": "Centro",
        "amenity": "school",
        "name": "EMEI Raio de Luz",
        "phone": "+51 98963 5275",
        "id": "node/8587085916"
      },
      "geometry": {
        "type": "Point",
        "coordinates": [
          -50.9277645,
          -29.6129034
        ]
      }
    },
    {
      "type": "Feature",
      "id": "node/8587088713",
      "properties": {
        "timestamp": "2023-02-10T19:02:02Z",
        "version": 2,
        "changeset": 132376509,
        "addr:city": "Araricá",
        "addr:street": "Avenida José Antônio de Oliveira Neto",
        "addr:suburb": "Centro",
        "amenity": "school",
        "name": "Escola Estadual de Ensino Médio de Araricá",
        "id": "node/8587088713"
      },
      "geometry": {
        "type": "Point",
        "coordinates": [
          -50.9278724,
          -29.6137199
        ]
      }
    },
    {
      "type": "Feature",
      "id": "node/8587090017",
      "properties": {
        "timestamp": "2023-02-10T19:02:02Z",
        "version": 3,
        "changeset": 132376509,
        "addr:city": "Araricá",
        "addr:street": "Avenida José Antônio de Oliveira Neto",
        "addr:suburb": "Centro",
        "amenity": "school",
        "name": "EMEF Prof. Martim Frederico Raschke",
        "id": "node/8587090017"
      },
      "geometry": {
        "type": "Point",
        "coordinates": [
          -50.9277868,
          -29.6132701
        ]
      }
    },
    {
      "type": "Feature",
      "id": "node/8588129206",
      "properties": {
        "timestamp": "2021-04-02T22:25:09Z",
        "version": 1,
        "changeset": 102218306,
        "amenity": "school",
        "name": "EMEI Pequeno Príncipe",
        "id": "node/8588129206"
      },
      "geometry": {
        "type": "Point",
        "coordinates": [
          -50.9205465,
          -29.6140074
        ]
      }
    }
  ]
}
