{
  "type": "FeatureCollection",
  "features": [
    {
      "type": "Feature",
      "id": "node/4696595023",
      "properties": {
        "timestamp": "2019-01-11T12:08:04Z",
        "version": 2,
        "changeset": 66224378,
        "amenity": "school",
        "name": "EEEM Xangri-Lá",
        "id": "node/4696595023"
      },
      "geometry": {
        "type": "Point",
        "coordinates": [
          -50.0391948,
          -29.7874255
        ]
      }
    },
    {
      "type": "Feature",
      "id": "node/6201197132",
      "properties": {
        "timestamp": "2019-01-11T15:00:39Z",
        "version": 1,
        "changeset": 66229204,
        "amenity": "school",
        "name": "Escola Municipal Naydes Emerim Pereira",
        "id": "node/6201197132"
      },
      "geometry": {
        "type": "Point",
        "coordinates": [
          -50.034832,
          -29.7762565
        ]
      }
    },
    {
      "type": "Feature",
      "id": "node/6201240802",
      "properties": {
        "timestamp": "2019-01-11T15:17:24Z",
        "version": 1,
        "changeset": 66229693,
        "amenity": "school",
        "name": "E.M.E.F. PETRONILHA MARIA ALVES DOS SANTOS",
        "id": "node/6201240802"
      },
      "geometry": {
        "type": "Point",
        "coordinates": [
          -50.0520017,
          -29.7698939
        ]
      }
    },
    {
      "type": "Feature",
      "id": "node/7297817860",
      "properties": {
        "timestamp": "2022-07-27T01:17:26Z",
        "version": 3,
        "changeset": 124117113,
        "amenity": "school",
        "name": "EMEI Rainha do Mar",
        "id": "node/7297817860"
      },
      "geometry": {
        "type": "Point",
        "coordinates": [
          -50.0746932,
          -29.8554384
        ]
      }
    },
    {
      "type": "Feature",
      "id": "node/8038553904",
      "properties": {
        "timestamp": "2020-10-23T10:35:04Z",
        "version": 2,
        "changeset": 92944215,
        "amenity": "school",
        "name": "EMEI Figueirinha",
        "id": "node/8038553904"
      },
      "geometry": {
        "type": "Point",
        "coordinates": [
          -50.0491533,
          -29.7833649
        ]
      }
    },
    {
      "type": "Feature",
      "id": "node/11034775800",
      "properties": {
        "timestamp": "2023-07-08T20:57:26Z",
        "version": 1,
        "changeset": 138277651,
        "amenity": "school",
        "name": "Escola Municipal Ensino Fundamental Manoel Prestes",
        "id": "node/11034775800"
      },
      "geometry": {
        "type": "Point",
        "coordinates": [
          -50.0669046,
          -29.8479414
        ]
      }
    },
    {
      "type": "Feature",
      "id": "node/11751330869",
      "properties": {
        "timestamp": "2024-03-21T19:43:30Z",
        "version": 1,
        "changeset": 148983205,
        "addr:street": "RS 407 - Xangri-lá",
        "amenity": "school",
        "name": "EMEI Lobinho Guará",
        "opening_hours": "Su-Th 08:00-17:00; Fr-Sa 00:00-24:00",
        "id": "node/11751330869"
      },
      "geometry": {
        "type": "Point",
        "coordinates": [
          -50.0465577,
          -29.7693853
        ]
      }
    }
  ]
}
