{
  "type": "FeatureCollection",
  "features": [
    {
      "type": "Feature",
      "id": "node/10861441146",
      "properties": {
        "timestamp": "2023-05-20T01:37:49Z",
        "version": 2,
        "changeset": 136320579,
        "amenity": "clinic",
        "name": "PSF Floresta",
        "id": "node/10861441146"
      },
      "geometry": {
        "type": "Point",
        "coordinates": [
          -42.935577,
          -22.1595098
        ]
      }
    },
    {
      "type": "Feature",
      "id": "node/10861441630",
      "properties": {
        "timestamp": "2023-06-07T13:36:41Z",
        "version": 2,
        "changeset": 137057035,
        "amenity": "clinic",
        "name": "PSF São Lourenço",
        "id": "node/10861441630"
      },
      "geometry": {
        "type": "Point",
        "coordinates": [
          -42.9353197,
          -22.1338277
        ]
      }
    },
    {
      "type": "Feature",
      "id": "node/10861448021",
      "properties": {
        "timestamp": "2023-05-03T02:15:05Z",
        "version": 2,
        "changeset": 135638592,
        "amenity": "clinic",
        "healthcare": "clinic",
        "name": "PSF Jaguara",
        "id": "node/10861448021"
      },
      "geometry": {
        "type": "Point",
        "coordinates": [
          -42.9854072,
          -22.1886196
        ]
      }
    },
    {
      "type": "Feature",
      "id": "node/10861448022",
      "properties": {
        "timestamp": "2023-06-07T20:42:29Z",
        "version": 2,
        "changeset": 137071370,
        "amenity": "clinic",
        "name": "PSF Pouso Alegre",
        "id": "node/10861448022"
      },
      "geometry": {
        "type": "Point",
        "coordinates": [
          -42.9022976,
          -22.1311698
        ]
      }
    },
    {
      "type": "Feature",
      "id": "node/10861464633",
      "properties": {
        "timestamp": "2023-05-03T02:15:05Z",
        "version": 2,
        "changeset": 135638592,
        "amenity": "clinic",
        "healthcare": "clinic",
        "name": "PSF Barrinha",
        "id": "node/10861464633"
      },
      "geometry": {
        "type": "Point",
        "coordinates": [
          -43.0195568,
          -22.1991124
        ]
      }
    },
    {
      "type": "Feature",
      "id": "node/10861468977",
      "properties": {
        "timestamp": "2023-05-03T02:15:05Z",
        "version": 2,
        "changeset": 135638592,
        "amenity": "clinic",
        "healthcare": "clinic",
        "name": "CEO São José",
        "id": "node/10861468977"
      },
      "geometry": {
        "type": "Point",
        "coordinates": [
          -42.9234955,
          -22.1500488
        ]
      }
    },
    {
      "type": "Feature",
      "id": "node/10861472234",
      "properties": {
        "timestamp": "2023-06-07T20:53:41Z",
        "version": 2,
        "changeset": 137071649,
        "amenity": "clinic",
        "name": "PSF Boa Vista",
        "id": "node/10861472234"
      },
      "geometry": {
        "type": "Point",
        "coordinates": [
          -42.8807753,
          -22.1493199
        ]
      }
    },
    {
      "type": "Feature",
      "id": "node/10861476731",
      "properties": {
        "timestamp": "2023-05-03T02:15:05Z",
        "version": 2,
        "changeset": 135638592,
        "amenity": "clinic",
        "healthcare": "clinic",
        "name": "Clínica da Família Eugênio Ruótulo Neto",
        "id": "node/10861476731"
      },
      "geometry": {
        "type": "Point",
        "coordinates": [
          -42.9511289,
          -22.1674677
        ]
      }
    },
    {
      "type": "Feature",
      "id": "node/10861476732",
      "properties": {
        "timestamp": "2023-05-02T01:28:55Z",
        "version": 1,
        "changeset": 135595787,
        "amenity": "clinic",
        "name": "Policlínica Municipal",
        "id": "node/10861476732"
      },
      "geometry": {
        "type": "Point",
        "coordinates": [
          -42.9292381,
          -22.1548831
        ]
      }
    },
    {
      "type": "Feature",
      "id": "node/10861483232",
      "properties": {
        "timestamp": "2023-05-03T02:15:05Z",
        "version": 2,
        "changeset": 135638592,
        "amenity": "clinic",
        "healthcare": "clinic",
        "name": "PSF Paulo Ney de Souza",
        "id": "node/10861483232"
      },
      "geometry": {
        "type": "Point",
        "coordinates": [
          -42.9805828,
          -22.1770929
        ]
      }
    },
    {
      "type": "Feature",
      "id": "node/10861483233",
      "properties": {
        "timestamp": "2023-05-20T01:37:49Z",
        "version": 2,
        "changeset": 136320579,
        "amenity": "clinic",
        "name": "PSF Roçadinho",
        "id": "node/10861483233"
      },
      "geometry": {
        "type": "Point",
        "coordinates": [
          -42.9319324,
          -22.1859058
        ]
      }
    },
    {
      "type": "Feature",
      "id": "node/10906731270",
      "properties": {
        "timestamp": "2023-05-18T00:39:10Z",
        "version": 1,
        "changeset": 136233260,
        "amenity": "clinic",
        "name": "Posto de Saúde do Pião",
        "id": "node/10906731270"
      },
      "geometry": {
        "type": "Point",
        "coordinates": [
          -42.7780473,
          -22.1238353
        ]
      }
    }
  ]
}
