{
  "type": "FeatureCollection",
  "features": [
    {
      "type": "Feature",
      "id": "node/2619848911",
      "properties": {
        "timestamp": "2019-07-06T03:02:57Z",
        "version": 2,
        "changeset": 71949010,
        "name": "Câmara de Vereadores",
        "office": "government",
        "id": "node/2619848911"
      },
      "geometry": {
        "type": "Point",
        "coordinates": [
          -53.1754085,
          -29.7304472
        ]
      }
    },
    {
      "type": "Feature",
      "id": "node/3622463601",
      "properties": {
        "timestamp": "2020-04-26T13:12:22Z",
        "version": 3,
        "changeset": 84141803,
        "name": "Conselho Tutelar",
        "office": "government",
        "id": "node/3622463601"
      },
      "geometry": {
        "type": "Point",
        "coordinates": [
          -53.1794382,
          -29.7289542
        ]
      }
    },
    {
      "type": "Feature",
      "id": "node/3622463602",
      "properties": {
        "timestamp": "2024-08-31T23:13:51Z",
        "version": 5,
        "changeset": 156034845,
        "government": "register_office",
        "name": "Cartório",
        "office": "government",
        "id": "node/3622463602"
      },
      "geometry": {
        "type": "Point",
        "coordinates": [
          -53.1830529,
          -29.7284037
        ]
      }
    },
    {
      "type": "Feature",
      "id": "node/3622513260",
      "properties": {
        "timestamp": "2019-07-06T03:02:57Z",
        "version": 2,
        "changeset": 71949010,
        "name": "Secretaria de Obras",
        "office": "government",
        "id": "node/3622513260"
      },
      "geometry": {
        "type": "Point",
        "coordinates": [
          -53.1736987,
          -29.7313434
        ]
      }
    },
    {
      "type": "Feature",
      "id": "node/3622513261",
      "properties": {
        "timestamp": "2019-07-06T03:02:57Z",
        "version": 2,
        "changeset": 71949010,
        "name": "EMATER RS",
        "office": "government",
        "id": "node/3622513261"
      },
      "geometry": {
        "type": "Point",
        "coordinates": [
          -53.1792815,
          -29.7323632
        ]
      }
    },
    {
      "type": "Feature",
      "id": "node/3622550114",
      "properties": {
        "timestamp": "2019-07-06T03:02:57Z",
        "version": 5,
        "changeset": 71949010,
        "government": "education",
        "name": "Secretaria Municipal de Educação",
        "office": "government",
        "id": "node/3622550114"
      },
      "geometry": {
        "type": "Point",
        "coordinates": [
          -53.1769374,
          -29.730379
        ]
      }
    },
    {
      "type": "Feature",
      "id": "node/4996066544",
      "properties": {
        "timestamp": "2019-07-06T03:02:57Z",
        "version": 2,
        "changeset": 71949010,
        "name": "Parque de Máquinas da Prefeitura",
        "office": "government",
        "id": "node/4996066544"
      },
      "geometry": {
        "type": "Point",
        "coordinates": [
          -53.1735508,
          -29.7309409
        ]
      }
    }
  ]
}
