{
  "type": "FeatureCollection",
  "features": [
    {
      "type": "Feature",
      "id": "node/4911412894",
      "properties": {
        "timestamp": "2021-01-08T18:09:38Z",
        "version": 2,
        "changeset": 97184719,
        "name": "Pantasma",
        "waterway": "waterfall",
        "id": "node/4911412894"
      },
      "geometry": {
        "type": "Point",
        "coordinates": [
          -40.9088402,
          -16.8790223
        ]
      }
    },
    {
      "type": "Feature",
      "id": "node/4937750312",
      "properties": {
        "timestamp": "2023-12-24T14:51:14Z",
        "version": 3,
        "changeset": 145471592,
        "name": "Cachoeira do Córrego Novo",
        "waterway": "waterfall",
        "id": "node/4937750312"
      },
      "geometry": {
        "type": "Point",
        "coordinates": [
          -40.9201015,
          -16.8952492
        ]
      }
    },
    {
      "type": "Feature",
      "id": "node/4939186958",
      "properties": {
        "timestamp": "2023-12-24T10:56:49Z",
        "version": 3,
        "changeset": 145464403,
        "name": "Cachoeira de Dona Nai",
        "waterway": "waterfall",
        "id": "node/4939186958"
      },
      "geometry": {
        "type": "Point",
        "coordinates": [
          -40.871571,
          -16.9376908
        ]
      }
    },
    {
      "type": "Feature",
      "id": "node/5076247914",
      "properties": {
        "timestamp": "2021-01-08T18:09:38Z",
        "version": 2,
        "changeset": 97184719,
        "name": "Cachoeira da Sarôa",
        "waterway": "waterfall",
        "id": "node/5076247914"
      },
      "geometry": {
        "type": "Point",
        "coordinates": [
          -40.8892357,
          -16.8665966
        ]
      }
    },
    {
      "type": "Feature",
      "id": "node/5076248932",
      "properties": {
        "timestamp": "2021-01-08T18:09:38Z",
        "version": 2,
        "changeset": 97184719,
        "name": "Cachoeira da Serra Nova",
        "waterway": "waterfall",
        "id": "node/5076248932"
      },
      "geometry": {
        "type": "Point",
        "coordinates": [
          -40.899986,
          -16.8880284
        ]
      }
    },
    {
      "type": "Feature",
      "id": "node/5076249541",
      "properties": {
        "timestamp": "2021-01-08T18:09:38Z",
        "version": 2,
        "changeset": 97184719,
        "name": "Julieta",
        "waterway": "waterfall",
        "id": "node/5076249541"
      },
      "geometry": {
        "type": "Point",
        "coordinates": [
          -40.9209931,
          -16.8525812
        ]
      }
    }
  ]
}
