{
  "type": "FeatureCollection",
  "features": [
    {
      "type": "Feature",
      "id": "node/2454223051",
      "properties": {
        "timestamp": "2013-09-11T20:11:07Z",
        "version": 2,
        "changeset": 17789555,
        "amenity": "pharmacy",
        "name": "Farmácia Dois Irmãos",
        "id": "node/2454223051"
      },
      "geometry": {
        "type": "Point",
        "coordinates": [
          -38.2190918,
          -8.9817515
        ]
      }
    },
    {
      "type": "Feature",
      "id": "node/2454223054",
      "properties": {
        "timestamp": "2013-09-11T15:21:18Z",
        "version": 1,
        "changeset": 17784879,
        "amenity": "pharmacy",
        "name": "Farmácia Trindade",
        "id": "node/2454223054"
      },
      "geometry": {
        "type": "Point",
        "coordinates": [
          -38.2186212,
          -8.9815116
        ]
      }
    },
    {
      "type": "Feature",
      "id": "node/2454648583",
      "properties": {
        "timestamp": "2013-09-11T20:01:52Z",
        "version": 1,
        "changeset": 17789377,
        "amenity": "pharmacy",
        "name": "Farmácia Santa Luzia",
        "id": "node/2454648583"
      },
      "geometry": {
        "type": "Point",
        "coordinates": [
          -38.2172527,
          -8.9799802
        ]
      }
    },
    {
      "type": "Feature",
      "id": "node/2454660726",
      "properties": {
        "timestamp": "2013-09-11T20:11:07Z",
        "version": 1,
        "changeset": 17789555,
        "amenity": "pharmacy",
        "name": "Farmácia Central",
        "id": "node/2454660726"
      },
      "geometry": {
        "type": "Point",
        "coordinates": [
          -38.2176409,
          -8.9810462
        ]
      }
    },
    {
      "type": "Feature",
      "id": "node/2455512181",
      "properties": {
        "timestamp": "2013-09-12T13:11:10Z",
        "version": 1,
        "changeset": 17799413,
        "amenity": "pharmacy",
        "name": "Farmácia Gonzaga",
        "id": "node/2455512181"
      },
      "geometry": {
        "type": "Point",
        "coordinates": [
          -38.2204275,
          -8.9737022
        ]
      }
    },
    {
      "type": "Feature",
      "id": "node/2455549843",
      "properties": {
        "timestamp": "2013-09-12T13:25:37Z",
        "version": 1,
        "changeset": 17799668,
        "amenity": "pharmacy",
        "name": "Mercadinho e Farmácia Nova Vida",
        "id": "node/2455549843"
      },
      "geometry": {
        "type": "Point",
        "coordinates": [
          -38.2229719,
          -8.9768637
        ]
      }
    }
  ]
}
