{
  "type": "FeatureCollection",
  "features": [
    {
      "type": "Feature",
      "id": "node/6042601885",
      "properties": {
        "timestamp": "2018-11-06T20:19:35Z",
        "version": 1,
        "changeset": 64243711,
        "amenity": "school",
        "name": "Escola Riachuelo",
        "id": "node/6042601885"
      },
      "geometry": {
        "type": "Point",
        "coordinates": [
          -61.1681536,
          2.9938526
        ]
      }
    },
    {
      "type": "Feature",
      "id": "node/6042601985",
      "properties": {
        "timestamp": "2018-11-06T20:19:37Z",
        "version": 1,
        "changeset": 64243711,
        "amenity": "school",
        "name": "Escola Estadual Indígena Eurico Mandalão",
        "id": "node/6042601985"
      },
      "geometry": {
        "type": "Point",
        "coordinates": [
          -61.2870346,
          2.8740285
        ]
      }
    },
    {
      "type": "Feature",
      "id": "node/6044789389",
      "properties": {
        "timestamp": "2018-11-07T20:11:45Z",
        "version": 1,
        "changeset": 64272751,
        "amenity": "school",
        "name": "Escola Municipal",
        "name:pt": "Escola Municipal Ednei de Sales Campelo",
        "id": "node/6044789389"
      },
      "geometry": {
        "type": "Point",
        "coordinates": [
          -61.3120281,
          2.992423
        ]
      }
    },
    {
      "type": "Feature",
      "id": "node/6051085687",
      "properties": {
        "timestamp": "2018-11-10T14:50:22Z",
        "version": 1,
        "changeset": 64353937,
        "amenity": "school",
        "name": "Escola Municipal",
        "id": "node/6051085687"
      },
      "geometry": {
        "type": "Point",
        "coordinates": [
          -61.6016403,
          3.0735723
        ]
      }
    },
    {
      "type": "Feature",
      "id": "node/6051120087",
      "properties": {
        "timestamp": "2018-11-10T14:50:24Z",
        "version": 1,
        "changeset": 64353937,
        "amenity": "school",
        "name": "Escola Estadual",
        "id": "node/6051120087"
      },
      "geometry": {
        "type": "Point",
        "coordinates": [
          -61.6021333,
          3.0711967
        ]
      }
    }
  ]
}
