{
  "type": "FeatureCollection",
  "features": [
    {
      "type": "Feature",
      "id": "node/5136858194",
      "properties": {
        "timestamp": "2020-03-26T07:09:03Z",
        "version": 2,
        "changeset": 82644759,
        "amenity": "pharmacy",
        "dispensing": "yes",
        "healthcare": "pharmacy",
        "name": "Farmácia do Povo",
        "operator": "privad",
        "id": "node/5136858194"
      },
      "geometry": {
        "type": "Point",
        "coordinates": [
          -42.6938308,
          -13.0190069
        ]
      }
    },
    {
      "type": "Feature",
      "id": "node/5136858196",
      "properties": {
        "timestamp": "2017-09-29T04:56:19Z",
        "version": 1,
        "changeset": 52464970,
        "amenity": "pharmacy",
        "name": "Drogaria Botânica",
        "id": "node/5136858196"
      },
      "geometry": {
        "type": "Point",
        "coordinates": [
          -42.69185,
          -13.0191462
        ]
      }
    },
    {
      "type": "Feature",
      "id": "node/5139105176",
      "properties": {
        "timestamp": "2017-09-30T09:06:15Z",
        "version": 1,
        "changeset": 52503182,
        "amenity": "pharmacy",
        "name": "Farmácia Cosme e Damião",
        "id": "node/5139105176"
      },
      "geometry": {
        "type": "Point",
        "coordinates": [
          -42.6946307,
          -13.0183379
        ]
      }
    },
    {
      "type": "Feature",
      "id": "node/5139105179",
      "properties": {
        "timestamp": "2017-09-30T09:06:15Z",
        "version": 1,
        "changeset": 52503182,
        "amenity": "pharmacy",
        "name": "Farmácia Azevedo",
        "id": "node/5139105179"
      },
      "geometry": {
        "type": "Point",
        "coordinates": [
          -42.6949447,
          -13.0202894
        ]
      }
    },
    {
      "type": "Feature",
      "id": "node/5139105180",
      "properties": {
        "timestamp": "2017-09-30T09:06:15Z",
        "version": 1,
        "changeset": 52503182,
        "amenity": "pharmacy",
        "name": "Farmácia Senhor do Bonfim",
        "id": "node/5139105180"
      },
      "geometry": {
        "type": "Point",
        "coordinates": [
          -42.6949527,
          -13.0202178
        ]
      }
    },
    {
      "type": "Feature",
      "id": "node/5148099207",
      "properties": {
        "timestamp": "2017-10-04T17:53:35Z",
        "version": 1,
        "changeset": 52632729,
        "amenity": "pharmacy",
        "name": "Farmácia FTB",
        "id": "node/5148099207"
      },
      "geometry": {
        "type": "Point",
        "coordinates": [
          -42.6945534,
          -13.0210681
        ]
      }
    },
    {
      "type": "Feature",
      "id": "node/5148099214",
      "properties": {
        "timestamp": "2017-10-04T17:53:36Z",
        "version": 1,
        "changeset": 52632729,
        "amenity": "pharmacy",
        "name": "Farmácia Avenida",
        "id": "node/5148099214"
      },
      "geometry": {
        "type": "Point",
        "coordinates": [
          -42.6875673,
          -13.0177583
        ]
      }
    }
  ]
}
