{
  "type": "FeatureCollection",
  "features": [
    {
      "type": "Feature",
      "id": "node/8190961409",
      "properties": {
        "timestamp": "2020-12-03T14:04:09Z",
        "version": 1,
        "changeset": 95231334,
        "name": "Detran",
        "office": "government",
        "id": "node/8190961409"
      },
      "geometry": {
        "type": "Point",
        "coordinates": [
          -42.2478154,
          -8.361116
        ]
      }
    },
    {
      "type": "Feature",
      "id": "node/8190961410",
      "properties": {
        "timestamp": "2020-12-03T14:04:09Z",
        "version": 1,
        "changeset": 95231334,
        "name": "Emater",
        "office": "government",
        "id": "node/8190961410"
      },
      "geometry": {
        "type": "Point",
        "coordinates": [
          -42.2479682,
          -8.3610077
        ]
      }
    },
    {
      "type": "Feature",
      "id": "node/8196643711",
      "properties": {
        "timestamp": "2020-12-05T16:09:29Z",
        "version": 1,
        "changeset": 95339734,
        "government": "register_office",
        "name": "Cartório da 20ª Zona Eleitoral do Piauí",
        "office": "government",
        "website": "https://www.tre-pi.jus.br/",
        "id": "node/8196643711"
      },
      "geometry": {
        "type": "Point",
        "coordinates": [
          -42.2540263,
          -8.3538667
        ]
      }
    },
    {
      "type": "Feature",
      "id": "node/8196659420",
      "properties": {
        "timestamp": "2020-12-05T16:09:29Z",
        "version": 1,
        "changeset": 95339734,
        "name": "Secretaria de Educação de São João do Piauí",
        "office": "government",
        "id": "node/8196659420"
      },
      "geometry": {
        "type": "Point",
        "coordinates": [
          -42.249553,
          -8.3629354
        ]
      }
    },
    {
      "type": "Feature",
      "id": "node/12523020318",
      "properties": {
        "timestamp": "2025-01-23T18:41:55Z",
        "version": 3,
        "changeset": 161685424,
        "government": "register_office",
        "name": "DEPARTAMENTO DE TRIBUTOS",
        "office": "government",
        "id": "node/12523020318"
      },
      "geometry": {
        "type": "Point",
        "coordinates": [
          -42.2490392,
          -8.3559673
        ]
      }
    },
    {
      "type": "Feature",
      "id": "node/12523020382",
      "properties": {
        "timestamp": "2025-01-23T18:41:55Z",
        "version": 3,
        "changeset": 161685424,
        "government": "social_security",
        "name": "Previdência social",
        "office": "government",
        "operator": "Instituto Nacional do Seguro Social",
        "operator:short": "INSS",
        "operator:wikidata": "Q10302614",
        "id": "node/12523020382"
      },
      "geometry": {
        "type": "Point",
        "coordinates": [
          -42.2519917,
          -8.3568935
        ]
      }
    },
    {
      "type": "Feature",
      "id": "node/12523020433",
      "properties": {
        "timestamp": "2025-01-23T18:41:55Z",
        "version": 3,
        "changeset": 161685424,
        "name": "Serventia Extrajudicial do Ofício Único de São João do Piauí",
        "office": "government",
        "id": "node/12523020433"
      },
      "geometry": {
        "type": "Point",
        "coordinates": [
          -42.2529809,
          -8.358436
        ]
      }
    },
    {
      "type": "Feature",
      "id": "node/12523020437",
      "properties": {
        "timestamp": "2025-01-23T18:41:55Z",
        "version": 3,
        "changeset": 161685424,
        "government": "register_office",
        "name": "Cartório Chico Santos - 1º TABELIONATO DE NOTAS, OFÍCIO DE REGISTRO DE IMÓVEIS E ANEXOS",
        "office": "government",
        "id": "node/12523020437"
      },
      "geometry": {
        "type": "Point",
        "coordinates": [
          -42.2529887,
          -8.3582934
        ]
      }
    },
    {
      "type": "Feature",
      "id": "node/12523020466",
      "properties": {
        "timestamp": "2025-01-23T18:41:55Z",
        "version": 3,
        "changeset": 161685424,
        "name": "Governo do Estado do Piauí Secretaria de Saúde",
        "office": "government",
        "id": "node/12523020466"
      },
      "geometry": {
        "type": "Point",
        "coordinates": [
          -42.2408689,
          -8.3653561
        ]
      }
    },
    {
      "type": "Feature",
      "id": "node/12523020497",
      "properties": {
        "timestamp": "2025-01-23T18:41:55Z",
        "version": 3,
        "changeset": 161685424,
        "name": "Empresa de Assistência Técnica e Extensão Rural do Piauí (Emater-PI)",
        "office": "government",
        "id": "node/12523020497"
      },
      "geometry": {
        "type": "Point",
        "coordinates": [
          -42.2478127,
          -8.3610638
        ]
      }
    },
    {
      "type": "Feature",
      "id": "node/12523020615",
      "properties": {
        "timestamp": "2025-01-23T18:41:55Z",
        "version": 3,
        "changeset": 161685424,
        "name": "XI Coordenação Regional de Saúde de São João do Piauí",
        "office": "government",
        "id": "node/12523020615"
      },
      "geometry": {
        "type": "Point",
        "coordinates": [
          -42.2555274,
          -8.3547629
        ]
      }
    },
    {
      "type": "Feature",
      "id": "node/12523020631",
      "properties": {
        "timestamp": "2025-01-23T18:41:55Z",
        "version": 3,
        "changeset": 161685424,
        "government": "register_office",
        "name": "Cartório da 69ª Zona Eleitoral do Piauí",
        "office": "government",
        "id": "node/12523020631"
      },
      "geometry": {
        "type": "Point",
        "coordinates": [
          -42.2539051,
          -8.3539163
        ]
      }
    },
    {
      "type": "Feature",
      "id": "node/12523020655",
      "properties": {
        "timestamp": "2025-01-23T18:41:55Z",
        "version": 3,
        "changeset": 161685424,
        "name": "Departamento Municipal de trânsito",
        "office": "government",
        "id": "node/12523020655"
      },
      "geometry": {
        "type": "Point",
        "coordinates": [
          -42.2564792,
          -8.3575138
        ]
      }
    }
  ]
}
