{
  "type": "FeatureCollection",
  "features": [
    {
      "type": "Feature",
      "id": "node/8190961409",
      "properties": {
        "timestamp": "2020-12-03T14:04:09Z",
        "version": 1,
        "changeset": 95231334,
        "name": "Detran",
        "office": "government",
        "id": "node/8190961409"
      },
      "geometry": {
        "type": "Point",
        "coordinates": [
          -42.2478154,
          -8.361116
        ]
      }
    },
    {
      "type": "Feature",
      "id": "node/8190961410",
      "properties": {
        "timestamp": "2020-12-03T14:04:09Z",
        "version": 1,
        "changeset": 95231334,
        "name": "Emater",
        "office": "government",
        "id": "node/8190961410"
      },
      "geometry": {
        "type": "Point",
        "coordinates": [
          -42.2479682,
          -8.3610077
        ]
      }
    },
    {
      "type": "Feature",
      "id": "node/8196643711",
      "properties": {
        "timestamp": "2020-12-05T16:09:29Z",
        "version": 1,
        "changeset": 95339734,
        "government": "register_office",
        "name": "Cartório da 20ª Zona Eleitoral do Piauí",
        "office": "government",
        "website": "https://www.tre-pi.jus.br/",
        "id": "node/8196643711"
      },
      "geometry": {
        "type": "Point",
        "coordinates": [
          -42.2540263,
          -8.3538667
        ]
      }
    },
    {
      "type": "Feature",
      "id": "node/8196659420",
      "properties": {
        "timestamp": "2020-12-05T16:09:29Z",
        "version": 1,
        "changeset": 95339734,
        "name": "Secretaria de Educação de São João do Piauí",
        "office": "government",
        "id": "node/8196659420"
      },
      "geometry": {
        "type": "Point",
        "coordinates": [
          -42.249553,
          -8.3629354
        ]
      }
    },
    {
      "type": "Feature",
      "id": "node/12523020433",
      "properties": {
        "timestamp": "2025-01-22T17:09:29Z",
        "version": 2,
        "changeset": 161646283,
        "gpxicon": "icon-1.png",
        "name": "Serventia Extrajudicial do Ofício Único de São João do Piauí",
        "office": "government",
        "id": "node/12523020433"
      },
      "geometry": {
        "type": "Point",
        "coordinates": [
          -42.2529809,
          -8.358436
        ]
      }
    },
    {
      "type": "Feature",
      "id": "node/12523020437",
      "properties": {
        "timestamp": "2025-01-22T17:09:29Z",
        "version": 2,
        "changeset": 161646283,
        "government": "register_office",
        "gpxicon": "icon-1.png",
        "name": "Cartório Chico Santos - 1º TABELIONATO DE NOTAS, OFÍCIO DE REGISTRO DE IMÓVEIS E ANEXOS",
        "office": "government",
        "id": "node/12523020437"
      },
      "geometry": {
        "type": "Point",
        "coordinates": [
          -42.2529887,
          -8.3582934
        ]
      }
    },
    {
      "type": "Feature",
      "id": "node/12523020569",
      "properties": {
        "timestamp": "2025-01-22T16:47:02Z",
        "version": 2,
        "changeset": 161645506,
        "gpxicon": "icon-1.png",
        "name": "Secretaria Municipal de Meio Ambiente e Recursos Hídricos",
        "office": "government",
        "id": "node/12523020569"
      },
      "geometry": {
        "type": "Point",
        "coordinates": [
          -42.2512785,
          -8.3607915
        ]
      }
    },
    {
      "type": "Feature",
      "id": "node/12523020615",
      "properties": {
        "timestamp": "2025-01-22T23:22:04Z",
        "version": 2,
        "changeset": 161656022,
        "gpxicon": "icon-1.png",
        "name": "XI Coordenação Regional de Saúde de São João do Piauí",
        "office": "government",
        "id": "node/12523020615"
      },
      "geometry": {
        "type": "Point",
        "coordinates": [
          -42.2555274,
          -8.3547629
        ]
      }
    },
    {
      "type": "Feature",
      "id": "node/12523020655",
      "properties": {
        "timestamp": "2025-01-22T17:09:29Z",
        "version": 2,
        "changeset": 161646283,
        "gpxicon": "icon-1.png",
        "name": "Departamento Municipal de trânsito",
        "office": "government",
        "id": "node/12523020655"
      },
      "geometry": {
        "type": "Point",
        "coordinates": [
          -42.2564792,
          -8.3575138
        ]
      }
    }
  ]
}
