{
  "type": "FeatureCollection",
  "features": [
    {
      "type": "Feature",
      "id": "node/4629292009",
      "properties": {
        "timestamp": "2017-01-24T15:02:42Z",
        "version": 1,
        "changeset": 45438763,
        "historic": "monument",
        "name": "Torre Eiffel",
        "id": "node/4629292009"
      },
      "geometry": {
        "type": "Point",
        "coordinates": [
          -49.0923974,
          -22.325074
        ]
      }
    },
    {
      "type": "Feature",
      "id": "node/4629292021",
      "properties": {
        "timestamp": "2017-01-24T15:02:42Z",
        "version": 1,
        "changeset": 45438763,
        "historic": "monument",
        "name": "Homenagem ao Comandante Daniel Marques",
        "id": "node/4629292021"
      },
      "geometry": {
        "type": "Point",
        "coordinates": [
          -49.1016139,
          -22.3058059
        ]
      }
    },
    {
      "type": "Feature",
      "id": "node/5572421673",
      "properties": {
        "timestamp": "2018-04-23T02:18:13Z",
        "version": 1,
        "changeset": 58324280,
        "historic": "monument",
        "id": "node/5572421673"
      },
      "geometry": {
        "type": "Point",
        "coordinates": [
          -49.0523138,
          -22.3371023
        ]
      }
    },
    {
      "type": "Feature",
      "id": "node/5572439889",
      "properties": {
        "timestamp": "2023-03-18T16:00:48Z",
        "version": 3,
        "changeset": 133828810,
        "historic": "monument",
        "name": "Monumento Unisagrado",
        "id": "node/5572439889"
      },
      "geometry": {
        "type": "Point",
        "coordinates": [
          -49.0523203,
          -22.3276613
        ]
      }
    },
    {
      "type": "Feature",
      "id": "node/5572439890",
      "properties": {
        "timestamp": "2018-05-03T03:21:32Z",
        "version": 2,
        "changeset": 58633778,
        "historic": "monument",
        "name": "Cristo Redentor",
        "id": "node/5572439890"
      },
      "geometry": {
        "type": "Point",
        "coordinates": [
          -49.0524999,
          -22.3275912
        ]
      }
    },
    {
      "type": "Feature",
      "id": "node/5583653444",
      "properties": {
        "timestamp": "2018-04-28T04:42:12Z",
        "version": 1,
        "changeset": 58495045,
        "historic": "monument",
        "id": "node/5583653444"
      },
      "geometry": {
        "type": "Point",
        "coordinates": [
          -49.070513,
          -22.3220791
        ]
      }
    },
    {
      "type": "Feature",
      "id": "node/6046904215",
      "properties": {
        "timestamp": "2019-01-30T16:48:24Z",
        "version": 2,
        "changeset": 66776598,
        "access": "yes",
        "historic": "monument",
        "name": "Missão centenário - Astronauta Marcos Pontes",
        "id": "node/6046904215"
      },
      "geometry": {
        "type": "Point",
        "coordinates": [
          -49.0543534,
          -22.3435712
        ]
      }
    },
    {
      "type": "Feature",
      "id": "node/6389395774",
      "properties": {
        "timestamp": "2019-04-07T18:24:48Z",
        "version": 1,
        "changeset": 68983457,
        "historic": "monument",
        "name": "Monumento de Homenagem ao Penta em Futebol",
        "id": "node/6389395774"
      },
      "geometry": {
        "type": "Point",
        "coordinates": [
          -49.1066117,
          -22.3337998
        ]
      }
    },
    {
      "type": "Feature",
      "id": "node/6389452467",
      "properties": {
        "timestamp": "2019-04-07T19:09:21Z",
        "version": 1,
        "changeset": 68984626,
        "historic": "monument",
        "name": "Monumento Relógio do Sol",
        "id": "node/6389452467"
      },
      "geometry": {
        "type": "Point",
        "coordinates": [
          -49.0857947,
          -22.3319782
        ]
      }
    },
    {
      "type": "Feature",
      "id": "node/7215442731",
      "properties": {
        "timestamp": "2020-02-16T03:26:02Z",
        "version": 1,
        "changeset": 81061024,
        "historic": "monument",
        "id": "node/7215442731"
      },
      "geometry": {
        "type": "Point",
        "coordinates": [
          -49.0784116,
          -22.3238633
        ]
      }
    },
    {
      "type": "Feature",
      "id": "node/10276539411",
      "properties": {
        "timestamp": "2024-10-28T01:06:50Z",
        "version": 2,
        "changeset": 158436244,
        "historic": "monument",
        "name": "Monumento da maçonaria",
        "id": "node/10276539411"
      },
      "geometry": {
        "type": "Point",
        "coordinates": [
          -49.0560519,
          -22.3335203
        ]
      }
    },
    {
      "type": "Feature",
      "id": "node/10276579609",
      "properties": {
        "timestamp": "2022-12-20T19:38:43Z",
        "version": 1,
        "changeset": 130303743,
        "historic": "monument",
        "name": "Concha de ferro",
        "id": "node/10276579609"
      },
      "geometry": {
        "type": "Point",
        "coordinates": [
          -49.0591684,
          -22.330597
        ]
      }
    },
    {
      "type": "Feature",
      "id": "node/11979211829",
      "properties": {
        "timestamp": "2024-06-13T21:42:57Z",
        "version": 1,
        "changeset": 152651131,
        "historic": "monument",
        "wikimedia_commons": "File:Vista_do_Coreto_do_Instituto_Lauro_de_Souza_Lima.jpg",
        "id": "node/11979211829"
      },
      "geometry": {
        "type": "Point",
        "coordinates": [
          -48.9782128,
          -22.326853
        ]
      }
    }
  ]
}
