{
  "type": "FeatureCollection",
  "features": [
    {
      "type": "Feature",
      "id": "node/2545896937",
      "properties": {
        "timestamp": "2019-01-22T16:37:12Z",
        "version": 2,
        "changeset": 66543293,
        "name": "Itacara Su",
        "waterway": "waterfall",
        "id": "node/2545896937"
      },
      "geometry": {
        "type": "Point",
        "coordinates": [
          -52.7002995,
          -0.4655129
        ]
      }
    },
    {
      "type": "Feature",
      "id": "node/2545899142",
      "properties": {
        "timestamp": "2023-05-20T21:11:25Z",
        "version": 3,
        "changeset": 136353243,
        "name": "Corredeira Cuiuri",
        "waterway": "waterfall",
        "id": "node/2545899142"
      },
      "geometry": {
        "type": "Point",
        "coordinates": [
          -53.0162752,
          0.0566831
        ]
      }
    },
    {
      "type": "Feature",
      "id": "node/2545899299",
      "properties": {
        "timestamp": "2021-01-16T10:55:30Z",
        "version": 3,
        "changeset": 97599051,
        "name": "Corredeira Tapurema",
        "waterway": "waterfall",
        "id": "node/2545899299"
      },
      "geometry": {
        "type": "Point",
        "coordinates": [
          -53.036452,
          0.1161906
        ]
      }
    },
    {
      "type": "Feature",
      "id": "node/2545899858",
      "properties": {
        "timestamp": "2020-12-31T10:11:20Z",
        "version": 3,
        "changeset": 96722502,
        "name": "Corredeira Urucupatá",
        "waterway": "waterfall",
        "id": "node/2545899858"
      },
      "geometry": {
        "type": "Point",
        "coordinates": [
          -53.1621767,
          0.5173804
        ]
      }
    },
    {
      "type": "Feature",
      "id": "node/2545899865",
      "properties": {
        "timestamp": "2020-12-31T10:11:20Z",
        "version": 3,
        "changeset": 96722502,
        "name": "Corredeira Poraquê",
        "waterway": "waterfall",
        "id": "node/2545899865"
      },
      "geometry": {
        "type": "Point",
        "coordinates": [
          -53.1535014,
          0.53296
        ]
      }
    },
    {
      "type": "Feature",
      "id": "node/2545903121",
      "properties": {
        "timestamp": "2019-01-23T15:13:28Z",
        "version": 2,
        "changeset": 66572831,
        "name": "Corredeira Molocopote",
        "waterway": "waterfall",
        "id": "node/2545903121"
      },
      "geometry": {
        "type": "Point",
        "coordinates": [
          -54.1349816,
          1.6040626
        ]
      }
    },
    {
      "type": "Feature",
      "id": "node/2547238607",
      "properties": {
        "timestamp": "2019-01-23T23:58:07Z",
        "version": 2,
        "changeset": 66584385,
        "name": "Corredeira Apapu",
        "waterway": "waterfall",
        "id": "node/2547238607"
      },
      "geometry": {
        "type": "Point",
        "coordinates": [
          -54.6744812,
          1.2785458
        ]
      }
    },
    {
      "type": "Feature",
      "id": "node/2547239792",
      "properties": {
        "timestamp": "2019-01-23T23:31:59Z",
        "version": 2,
        "changeset": 66584154,
        "name": "Corredeira Macori",
        "waterway": "waterfall",
        "id": "node/2547239792"
      },
      "geometry": {
        "type": "Point",
        "coordinates": [
          -54.9880101,
          1.7068042
        ]
      }
    },
    {
      "type": "Feature",
      "id": "node/2943399662",
      "properties": {
        "timestamp": "2019-01-22T23:58:48Z",
        "version": 2,
        "changeset": 66554173,
        "historic": "boundary_stone",
        "name": "Corredeira Macaquara",
        "waterway": "waterfall",
        "id": "node/2943399662"
      },
      "geometry": {
        "type": "Point",
        "coordinates": [
          -53.3642026,
          0.8928885
        ]
      }
    },
    {
      "type": "Feature",
      "id": "node/4321591070",
      "properties": {
        "timestamp": "2019-01-22T23:58:48Z",
        "version": 2,
        "changeset": 66554173,
        "name": "Corredeira do Desespero",
        "waterway": "waterfall",
        "id": "node/4321591070"
      },
      "geometry": {
        "type": "Point",
        "coordinates": [
          -53.4165681,
          0.9344831
        ]
      }
    },
    {
      "type": "Feature",
      "id": "node/6227695574",
      "properties": {
        "timestamp": "2019-01-22T17:12:07Z",
        "version": 1,
        "changeset": 66544277,
        "name": "Corredeira Ipiti",
        "waterway": "waterfall",
        "id": "node/6227695574"
      },
      "geometry": {
        "type": "Point",
        "coordinates": [
          -53.0100632,
          0.0482369
        ]
      }
    },
    {
      "type": "Feature",
      "id": "node/6227695760",
      "properties": {
        "timestamp": "2019-01-22T17:12:08Z",
        "version": 1,
        "changeset": 66544277,
        "name": "Corredeira Maçaramduba",
        "waterway": "waterfall",
        "id": "node/6227695760"
      },
      "geometry": {
        "type": "Point",
        "coordinates": [
          -52.8430903,
          -0.1647518
        ]
      }
    },
    {
      "type": "Feature",
      "id": "node/6227695774",
      "properties": {
        "timestamp": "2019-01-22T17:12:08Z",
        "version": 1,
        "changeset": 66544277,
        "name": "Corredeira Carecuru",
        "waterway": "waterfall",
        "id": "node/6227695774"
      },
      "geometry": {
        "type": "Point",
        "coordinates": [
          -52.9364634,
          -0.1457511
        ]
      }
    },
    {
      "type": "Feature",
      "id": "node/6231331294",
      "properties": {
        "timestamp": "2019-01-23T23:31:57Z",
        "version": 1,
        "changeset": 66584154,
        "name": "Corredeira Maxituri",
        "waterway": "waterfall",
        "id": "node/6231331294"
      },
      "geometry": {
        "type": "Point",
        "coordinates": [
          -55.0044787,
          1.7608183
        ]
      }
    },
    {
      "type": "Feature",
      "id": "node/6231331320",
      "properties": {
        "timestamp": "2019-01-23T23:31:58Z",
        "version": 1,
        "changeset": 66584154,
        "name": "Corredeira Mura Grande",
        "waterway": "waterfall",
        "id": "node/6231331320"
      },
      "geometry": {
        "type": "Point",
        "coordinates": [
          -54.9897105,
          1.701027
        ]
      }
    },
    {
      "type": "Feature",
      "id": "node/6231365867",
      "properties": {
        "timestamp": "2020-12-31T10:21:35Z",
        "version": 2,
        "changeset": 96723198,
        "name": "Corredeira Periquita",
        "waterway": "waterfall",
        "id": "node/6231365867"
      },
      "geometry": {
        "type": "Point",
        "coordinates": [
          -53.1842029,
          0.3727386
        ]
      }
    },
    {
      "type": "Feature",
      "id": "node/6231366861",
      "properties": {
        "timestamp": "2019-01-24T00:45:24Z",
        "version": 1,
        "changeset": 66584915,
        "name": "Corredeira Aruan",
        "waterway": "waterfall",
        "id": "node/6231366861"
      },
      "geometry": {
        "type": "Point",
        "coordinates": [
          -53.1099808,
          0.2759661
        ]
      }
    },
    {
      "type": "Feature",
      "id": "node/6231366871",
      "properties": {
        "timestamp": "2023-04-27T13:49:29Z",
        "version": 2,
        "changeset": 135429977,
        "name": "Cachoeira Apupai",
        "waterway": "waterfall",
        "wikidata": "Q22026926",
        "id": "node/6231366871"
      },
      "geometry": {
        "type": "Point",
        "coordinates": [
          -53.2770342,
          0.8265128
        ]
      }
    },
    {
      "type": "Feature",
      "id": "node/6231383402",
      "properties": {
        "timestamp": "2019-01-24T00:45:26Z",
        "version": 1,
        "changeset": 66584915,
        "name": "Corredeira Rebojo",
        "waterway": "waterfall",
        "id": "node/6231383402"
      },
      "geometry": {
        "type": "Point",
        "coordinates": [
          -53.1542343,
          0.5873684
        ]
      }
    },
    {
      "type": "Feature",
      "id": "node/6231383434",
      "properties": {
        "timestamp": "2019-01-24T00:45:26Z",
        "version": 1,
        "changeset": 66584915,
        "name": "Corredeira Guariba",
        "waterway": "waterfall",
        "id": "node/6231383434"
      },
      "geometry": {
        "type": "Point",
        "coordinates": [
          -53.1638718,
          0.4809574
        ]
      }
    },
    {
      "type": "Feature",
      "id": "node/6233157161",
      "properties": {
        "timestamp": "2019-01-24T14:45:24Z",
        "version": 1,
        "changeset": 66604064,
        "name": "Corredeira Inajá",
        "waterway": "waterfall",
        "id": "node/6233157161"
      },
      "geometry": {
        "type": "Point",
        "coordinates": [
          -52.7482729,
          -0.2716418
        ]
      }
    },
    {
      "type": "Feature",
      "id": "node/8277790355",
      "properties": {
        "timestamp": "2020-12-31T10:21:35Z",
        "version": 1,
        "changeset": 96723198,
        "name": "Corredeira Periquita",
        "waterway": "waterfall",
        "id": "node/8277790355"
      },
      "geometry": {
        "type": "Point",
        "coordinates": [
          -53.1804854,
          0.3734735
        ]
      }
    },
    {
      "type": "Feature",
      "id": "node/8277790363",
      "properties": {
        "timestamp": "2020-12-31T10:21:35Z",
        "version": 1,
        "changeset": 96723198,
        "name": "Corredeira Periquita",
        "waterway": "waterfall",
        "id": "node/8277790363"
      },
      "geometry": {
        "type": "Point",
        "coordinates": [
          -53.1799328,
          0.374128
        ]
      }
    }
  ]
}
