{
  "type": "FeatureCollection",
  "features": [
    {
      "type": "Feature",
      "id": "node/4771209940",
      "properties": {
        "timestamp": "2020-06-05T14:32:06Z",
        "version": 2,
        "changeset": 86249660,
        "name": "Cachoeira do Saci",
        "waterway": "waterfall",
        "id": "node/4771209940"
      },
      "geometry": {
        "type": "Point",
        "coordinates": [
          -47.0856939,
          -23.7948292
        ]
      }
    },
    {
      "type": "Feature",
      "id": "node/7541035402",
      "properties": {
        "timestamp": "2023-01-15T19:45:44Z",
        "version": 2,
        "changeset": 131312028,
        "name": "Cachoeira do Rio Bonito",
        "waterway": "waterfall",
        "id": "node/7541035402"
      },
      "geometry": {
        "type": "Point",
        "coordinates": [
          -47.2070128,
          -23.9369181
        ]
      }
    },
    {
      "type": "Feature",
      "id": "node/9760851798",
      "properties": {
        "timestamp": "2023-05-09T18:35:29Z",
        "version": 3,
        "changeset": 135908072,
        "name": "Cachoeira do Juquiá-Bonito",
        "tourism": "attraction",
        "waterway": "waterfall",
        "id": "node/9760851798"
      },
      "geometry": {
        "type": "Point",
        "coordinates": [
          -47.2013716,
          -23.9425204
        ]
      }
    },
    {
      "type": "Feature",
      "id": "node/10557481147",
      "properties": {
        "timestamp": "2023-01-15T19:45:44Z",
        "version": 1,
        "changeset": 131312028,
        "name": "Cachoeira dos Guardiães",
        "waterway": "waterfall",
        "id": "node/10557481147"
      },
      "geometry": {
        "type": "Point",
        "coordinates": [
          -47.2043144,
          -23.9378258
        ]
      }
    },
    {
      "type": "Feature",
      "id": "node/10557481148",
      "properties": {
        "timestamp": "2023-01-15T19:45:44Z",
        "version": 1,
        "changeset": 131312028,
        "name": "Cachoeira do Paredão",
        "waterway": "waterfall",
        "id": "node/10557481148"
      },
      "geometry": {
        "type": "Point",
        "coordinates": [
          -47.2037038,
          -23.9496372
        ]
      }
    }
  ]
}
