{
  "type": "FeatureCollection",
  "features": [
    {
      "type": "Feature",
      "id": "node/315995895",
      "properties": {
        "timestamp": "2022-12-28T22:05:26Z",
        "version": 5,
        "changeset": 130620291,
        "name": "Cachoeira do Tomé",
        "tourism": "attraction",
        "waterway": "waterfall",
        "id": "node/315995895"
      },
      "geometry": {
        "type": "Point",
        "coordinates": [
          -43.6399913,
          -19.3477773
        ]
      }
    },
    {
      "type": "Feature",
      "id": "node/315997515",
      "properties": {
        "timestamp": "2022-12-28T22:05:26Z",
        "version": 8,
        "changeset": 130620291,
        "name": "Cachoeira Grande",
        "tourism": "attraction",
        "waterway": "waterfall",
        "id": "node/315997515"
      },
      "geometry": {
        "type": "Point",
        "coordinates": [
          -43.6344264,
          -19.3471788
        ]
      }
    },
    {
      "type": "Feature",
      "id": "node/315998243",
      "properties": {
        "timestamp": "2022-12-28T22:05:26Z",
        "version": 6,
        "changeset": 130620291,
        "name": "Pedrão",
        "tourism": "attraction",
        "waterway": "waterfall",
        "id": "node/315998243"
      },
      "geometry": {
        "type": "Point",
        "coordinates": [
          -43.6452884,
          -19.3431676
        ]
      }
    },
    {
      "type": "Feature",
      "id": "node/321707007",
      "properties": {
        "timestamp": "2025-01-07T00:54:07Z",
        "version": 4,
        "changeset": 161079327,
        "name": "Cachoeira das Andorinhas",
        "waterway": "waterfall",
        "id": "node/321707007"
      },
      "geometry": {
        "type": "Point",
        "coordinates": [
          -43.5570924,
          -19.343217
        ]
      }
    },
    {
      "type": "Feature",
      "id": "node/321707066",
      "properties": {
        "timestamp": "2025-01-07T00:54:07Z",
        "version": 5,
        "changeset": 161079327,
        "name": "Cachoeira Engenho Velho",
        "waterway": "waterfall",
        "id": "node/321707066"
      },
      "geometry": {
        "type": "Point",
        "coordinates": [
          -43.5428735,
          -19.3434153
        ]
      }
    },
    {
      "type": "Feature",
      "id": "node/321773756",
      "properties": {
        "timestamp": "2025-01-07T02:10:35Z",
        "version": 5,
        "changeset": 161080278,
        "name": "Cachoeira do Capão dos Palmitos",
        "tourism": "attraction",
        "waterway": "waterfall",
        "id": "node/321773756"
      },
      "geometry": {
        "type": "Point",
        "coordinates": [
          -43.6092455,
          -19.3775435
        ]
      }
    },
    {
      "type": "Feature",
      "id": "node/321774643",
      "properties": {
        "timestamp": "2015-02-01T15:01:59Z",
        "version": 3,
        "changeset": 28546848,
        "name": "Cachoeira Farofa de Cima",
        "tourism": "attraction",
        "waterway": "waterfall",
        "id": "node/321774643"
      },
      "geometry": {
        "type": "Point",
        "coordinates": [
          -43.5700146,
          -19.377892
        ]
      }
    },
    {
      "type": "Feature",
      "id": "node/321774899",
      "properties": {
        "timestamp": "2022-05-25T16:32:17Z",
        "version": 3,
        "changeset": 121484036,
        "name": "Cachoeira da Farofa",
        "tourism": "attraction",
        "waterway": "waterfall",
        "id": "node/321774899"
      },
      "geometry": {
        "type": "Point",
        "coordinates": [
          -43.5758953,
          -19.3792748
        ]
      }
    },
    {
      "type": "Feature",
      "id": "node/321909327",
      "properties": {
        "timestamp": "2025-01-06T04:21:41Z",
        "version": 3,
        "changeset": 161043784,
        "name": "Cachoeira Braunas",
        "waterway": "waterfall",
        "id": "node/321909327"
      },
      "geometry": {
        "type": "Point",
        "coordinates": [
          -43.5364906,
          -19.4441988
        ]
      }
    },
    {
      "type": "Feature",
      "id": "node/321909912",
      "properties": {
        "timestamp": "2022-12-28T22:05:27Z",
        "version": 2,
        "changeset": 130620291,
        "name": "Cachoeira de Baixo",
        "waterway": "waterfall",
        "id": "node/321909912"
      },
      "geometry": {
        "type": "Point",
        "coordinates": [
          -43.6435157,
          -19.3432801
        ]
      }
    },
    {
      "type": "Feature",
      "id": "node/2556242070",
      "properties": {
        "timestamp": "2025-01-07T00:57:50Z",
        "version": 3,
        "changeset": 161079398,
        "name": "Cachoeira do Tombador",
        "source": "survey",
        "tourism": "attraction",
        "waterway": "waterfall",
        "id": "node/2556242070"
      },
      "geometry": {
        "type": "Point",
        "coordinates": [
          -43.5401521,
          -19.3353911
        ]
      }
    },
    {
      "type": "Feature",
      "id": "node/3325271483",
      "properties": {
        "timestamp": "2025-01-07T02:10:35Z",
        "version": 2,
        "changeset": 161080278,
        "name": "Cachoeira do S",
        "waterway": "waterfall",
        "id": "node/3325271483"
      },
      "geometry": {
        "type": "Point",
        "coordinates": [
          -43.6068094,
          -19.377041
        ]
      }
    },
    {
      "type": "Feature",
      "id": "node/3879051488",
      "properties": {
        "timestamp": "2015-12-07T23:29:23Z",
        "version": 2,
        "changeset": 35818201,
        "name": "Cachoeira do Bené",
        "waterway": "waterfall",
        "id": "node/3879051488"
      },
      "geometry": {
        "type": "Point",
        "coordinates": [
          -43.6433992,
          -19.4933165
        ]
      }
    },
    {
      "type": "Feature",
      "id": "node/4361662784",
      "properties": {
        "timestamp": "2016-08-22T14:33:16Z",
        "version": 1,
        "changeset": 41616116,
        "name": "Cachoeira do Bene",
        "waterway": "waterfall",
        "id": "node/4361662784"
      },
      "geometry": {
        "type": "Point",
        "coordinates": [
          -43.6438185,
          -19.4928387
        ]
      }
    },
    {
      "type": "Feature",
      "id": "node/7641089985",
      "properties": {
        "timestamp": "2020-06-21T21:32:59Z",
        "version": 1,
        "changeset": 86947136,
        "waterway": "waterfall",
        "id": "node/7641089985"
      },
      "geometry": {
        "type": "Point",
        "coordinates": [
          -43.6262632,
          -19.5142511
        ]
      }
    },
    {
      "type": "Feature",
      "id": "node/9081086983",
      "properties": {
        "timestamp": "2021-09-10T23:03:03Z",
        "version": 1,
        "changeset": 111044656,
        "name": "Cachoeira Brauninhas",
        "waterway": "waterfall",
        "id": "node/9081086983"
      },
      "geometry": {
        "type": "Point",
        "coordinates": [
          -43.5355702,
          -19.4426188
        ]
      }
    },
    {
      "type": "Feature",
      "id": "node/9084079544",
      "properties": {
        "timestamp": "2021-09-12T14:09:59Z",
        "version": 1,
        "changeset": 111098181,
        "name": "Cachoeira João Fernandes",
        "waterway": "waterfall",
        "id": "node/9084079544"
      },
      "geometry": {
        "type": "Point",
        "coordinates": [
          -43.5284329,
          -19.3661249
        ]
      }
    },
    {
      "type": "Feature",
      "id": "node/9294540607",
      "properties": {
        "timestamp": "2021-11-29T20:49:25Z",
        "version": 1,
        "changeset": 114376943,
        "intermittent": "no",
        "name": "Cachoeira Taioba",
        "waterway": "waterfall",
        "id": "node/9294540607"
      },
      "geometry": {
        "type": "Point",
        "coordinates": [
          -43.5711832,
          -19.3919756
        ]
      }
    },
    {
      "type": "Feature",
      "id": "node/9294548724",
      "properties": {
        "timestamp": "2021-11-29T20:49:25Z",
        "version": 1,
        "changeset": 114376943,
        "intermittent": "no",
        "name": "Cachoeira Pedra Quadrada",
        "waterway": "waterfall",
        "id": "node/9294548724"
      },
      "geometry": {
        "type": "Point",
        "coordinates": [
          -43.5677078,
          -19.3914292
        ]
      }
    }
  ]
}
