{
  "type": "FeatureCollection",
  "features": [
    {
      "type": "Feature",
      "id": "node/4983903828",
      "properties": {
        "timestamp": "2021-08-14T22:55:59Z",
        "version": 2,
        "changeset": 109684735,
        "amenity": "pharmacy",
        "healthcare": "pharmacy",
        "name": "Drogaria Santa Maria",
        "name:pt": "Drogaria Santa Maria",
        "id": "node/4983903828"
      },
      "geometry": {
        "type": "Point",
        "coordinates": [
          -50.449623,
          -18.4511889
        ]
      }
    },
    {
      "type": "Feature",
      "id": "node/4983904025",
      "properties": {
        "timestamp": "2021-08-14T22:55:59Z",
        "version": 2,
        "changeset": 109684735,
        "amenity": "pharmacy",
        "healthcare": "pharmacy",
        "id": "node/4983904025"
      },
      "geometry": {
        "type": "Point",
        "coordinates": [
          -50.4477715,
          -18.4505783
        ]
      }
    },
    {
      "type": "Feature",
      "id": "node/4983946324",
      "properties": {
        "timestamp": "2021-08-14T22:55:59Z",
        "version": 2,
        "changeset": 109684735,
        "amenity": "pharmacy",
        "healthcare": "pharmacy",
        "name": "Drogaria saúde",
        "name:pt": "Drogaria saúde",
        "id": "node/4983946324"
      },
      "geometry": {
        "type": "Point",
        "coordinates": [
          -50.4378107,
          -18.4508812
        ]
      }
    },
    {
      "type": "Feature",
      "id": "node/4983946325",
      "properties": {
        "timestamp": "2017-07-21T00:18:48Z",
        "version": 1,
        "changeset": 50444719,
        "amenity": "pharmacy",
        "name": "Farmacia santo Antônio",
        "name:pt": "Farmacia santo Antônio",
        "id": "node/4983946325"
      },
      "geometry": {
        "type": "Point",
        "coordinates": [
          -50.4539041,
          -18.4462881
        ]
      }
    },
    {
      "type": "Feature",
      "id": "node/4983960524",
      "properties": {
        "timestamp": "2021-08-14T22:55:59Z",
        "version": 2,
        "changeset": 109684735,
        "amenity": "pharmacy",
        "healthcare": "pharmacy",
        "name": "Drogaria Silva",
        "name:pt": "Drogaria Silva",
        "id": "node/4983960524"
      },
      "geometry": {
        "type": "Point",
        "coordinates": [
          -50.4580055,
          -18.4519606
        ]
      }
    },
    {
      "type": "Feature",
      "id": "node/4983960824",
      "properties": {
        "timestamp": "2017-07-21T00:18:55Z",
        "version": 1,
        "changeset": 50444719,
        "amenity": "pharmacy",
        "name": "Drogaria Babel",
        "name:pt": "Drogaria Babel",
        "id": "node/4983960824"
      },
      "geometry": {
        "type": "Point",
        "coordinates": [
          -50.452579,
          -18.445665
        ]
      }
    },
    {
      "type": "Feature",
      "id": "node/4984013221",
      "properties": {
        "timestamp": "2021-08-14T22:55:59Z",
        "version": 2,
        "changeset": 109684735,
        "amenity": "pharmacy",
        "healthcare": "pharmacy",
        "id": "node/4984013221"
      },
      "geometry": {
        "type": "Point",
        "coordinates": [
          -50.4455099,
          -18.452623
        ]
      }
    },
    {
      "type": "Feature",
      "id": "node/4984013222",
      "properties": {
        "timestamp": "2021-08-14T22:55:59Z",
        "version": 2,
        "changeset": 109684735,
        "amenity": "pharmacy",
        "healthcare": "pharmacy",
        "id": "node/4984013222"
      },
      "geometry": {
        "type": "Point",
        "coordinates": [
          -50.4454424,
          -18.4524724
        ]
      }
    },
    {
      "type": "Feature",
      "id": "node/4984013223",
      "properties": {
        "timestamp": "2021-08-14T22:55:59Z",
        "version": 2,
        "changeset": 109684735,
        "amenity": "pharmacy",
        "healthcare": "pharmacy",
        "id": "node/4984013223"
      },
      "geometry": {
        "type": "Point",
        "coordinates": [
          -50.4461179,
          -18.4522406
        ]
      }
    },
    {
      "type": "Feature",
      "id": "node/4984013321",
      "properties": {
        "timestamp": "2021-08-14T22:55:59Z",
        "version": 2,
        "changeset": 109684735,
        "amenity": "pharmacy",
        "healthcare": "pharmacy",
        "name": "Farmacia Gava",
        "name:pt": "Farmacia Gava",
        "id": "node/4984013321"
      },
      "geometry": {
        "type": "Point",
        "coordinates": [
          -50.4455346,
          -18.4524414
        ]
      }
    },
    {
      "type": "Feature",
      "id": "node/4984746025",
      "properties": {
        "timestamp": "2017-07-21T11:47:49Z",
        "version": 1,
        "changeset": 50456467,
        "amenity": "pharmacy",
        "name": "Posto de saúde",
        "name:pt": "Posto de saúde",
        "id": "node/4984746025"
      },
      "geometry": {
        "type": "Point",
        "coordinates": [
          -50.458944,
          -18.4604384
        ]
      }
    },
    {
      "type": "Feature",
      "id": "node/4984759026",
      "properties": {
        "timestamp": "2017-07-21T11:37:31Z",
        "version": 1,
        "changeset": 50456229,
        "amenity": "pharmacy",
        "name": "Drogaria Vitória",
        "name:pt": "Drogaria Vitória",
        "id": "node/4984759026"
      },
      "geometry": {
        "type": "Point",
        "coordinates": [
          -50.4486054,
          -18.4423382
        ]
      }
    },
    {
      "type": "Feature",
      "id": "node/4984759124",
      "properties": {
        "timestamp": "2020-03-08T03:21:15Z",
        "version": 2,
        "changeset": 81913966,
        "amenity": "pharmacy",
        "healthcare": "pharmacy",
        "name": "Farmacia Goyana",
        "name:pt": "Farmacia Goyana",
        "id": "node/4984759124"
      },
      "geometry": {
        "type": "Point",
        "coordinates": [
          -50.4497656,
          -18.4466708
        ]
      }
    },
    {
      "type": "Feature",
      "id": "node/4984759321",
      "properties": {
        "timestamp": "2020-03-08T03:21:15Z",
        "version": 2,
        "changeset": 81913966,
        "amenity": "pharmacy",
        "healthcare": "pharmacy",
        "name": "Nacional Farma 24h",
        "name:pt": "Nacional Farma 24h",
        "id": "node/4984759321"
      },
      "geometry": {
        "type": "Point",
        "coordinates": [
          -50.4519475,
          -18.4469715
        ]
      }
    },
    {
      "type": "Feature",
      "id": "node/4984759322",
      "properties": {
        "timestamp": "2020-03-08T03:21:15Z",
        "version": 2,
        "changeset": 81913966,
        "amenity": "pharmacy",
        "healthcare": "pharmacy",
        "name": "Drogaria Quirinópolis",
        "name:pt": "Drogaria Quirinópolis",
        "id": "node/4984759322"
      },
      "geometry": {
        "type": "Point",
        "coordinates": [
          -50.4512978,
          -18.4473421
        ]
      }
    },
    {
      "type": "Feature",
      "id": "node/4984759323",
      "properties": {
        "timestamp": "2020-03-08T03:21:15Z",
        "version": 2,
        "changeset": 81913966,
        "amenity": "pharmacy",
        "healthcare": "pharmacy",
        "name": "Drogaria Arco íris",
        "name:pt": "Drogaria Arco íris",
        "id": "node/4984759323"
      },
      "geometry": {
        "type": "Point",
        "coordinates": [
          -50.45201,
          -18.4491418
        ]
      }
    },
    {
      "type": "Feature",
      "id": "node/4984760725",
      "properties": {
        "timestamp": "2017-07-21T11:51:21Z",
        "version": 1,
        "changeset": 50456542,
        "amenity": "pharmacy",
        "name": "Posto de saude",
        "name:pt": "Posto de saude",
        "id": "node/4984760725"
      },
      "geometry": {
        "type": "Point",
        "coordinates": [
          -50.4572865,
          -18.4647221
        ]
      }
    },
    {
      "type": "Feature",
      "id": "node/4984813921",
      "properties": {
        "timestamp": "2021-08-14T22:55:59Z",
        "version": 2,
        "changeset": 109684735,
        "amenity": "pharmacy",
        "healthcare": "pharmacy",
        "name": "Posto de saúde",
        "name:pt": "Posto de saúde",
        "id": "node/4984813921"
      },
      "geometry": {
        "type": "Point",
        "coordinates": [
          -50.4491845,
          -18.4595807
        ]
      }
    },
    {
      "type": "Feature",
      "id": "node/4984813925",
      "properties": {
        "timestamp": "2021-08-14T22:55:59Z",
        "version": 2,
        "changeset": 109684735,
        "amenity": "pharmacy",
        "healthcare": "pharmacy",
        "id": "node/4984813925"
      },
      "geometry": {
        "type": "Point",
        "coordinates": [
          -50.4445158,
          -18.4518367
        ]
      }
    },
    {
      "type": "Feature",
      "id": "node/4991018122",
      "properties": {
        "timestamp": "2017-07-24T19:27:52Z",
        "version": 1,
        "changeset": 50537739,
        "amenity": "pharmacy",
        "name": "Posto de saude",
        "name:pt": "Posto de saude",
        "id": "node/4991018122"
      },
      "geometry": {
        "type": "Point",
        "coordinates": [
          -50.4461291,
          -18.4402725
        ]
      }
    },
    {
      "type": "Feature",
      "id": "node/4991018221",
      "properties": {
        "timestamp": "2017-07-24T19:27:48Z",
        "version": 1,
        "changeset": 50537739,
        "amenity": "pharmacy",
        "name": "Posto de saude Chico Preta",
        "name:pt": "Posto de saude Chico Preta",
        "id": "node/4991018221"
      },
      "geometry": {
        "type": "Point",
        "coordinates": [
          -50.4411,
          -18.4340436
        ]
      }
    },
    {
      "type": "Feature",
      "id": "node/4991018521",
      "properties": {
        "timestamp": "2017-07-24T19:27:50Z",
        "version": 1,
        "changeset": 50537739,
        "amenity": "pharmacy",
        "name": "Posto de saude Athaides",
        "name:pt": "Posto de saude Athaides",
        "id": "node/4991018521"
      },
      "geometry": {
        "type": "Point",
        "coordinates": [
          -50.4475749,
          -18.4372381
        ]
      }
    }
  ]
}
