{
  "type": "FeatureCollection",
  "features": [
    {
      "type": "Feature",
      "id": "node/9958172304",
      "properties": {
        "timestamp": "2022-08-17T00:47:52Z",
        "version": 1,
        "changeset": 124995168,
        "name": "Sec Infraestrutura",
        "office": "government",
        "id": "node/9958172304"
      },
      "geometry": {
        "type": "Point",
        "coordinates": [
          -56.6383231,
          -16.2683206
        ]
      }
    },
    {
      "type": "Feature",
      "id": "node/9958178968",
      "properties": {
        "timestamp": "2022-08-17T01:03:01Z",
        "version": 1,
        "changeset": 124995368,
        "name": "DETRAN",
        "office": "government",
        "id": "node/9958178968"
      },
      "geometry": {
        "type": "Point",
        "coordinates": [
          -56.6257218,
          -16.2582311
        ]
      }
    },
    {
      "type": "Feature",
      "id": "node/9959282303",
      "properties": {
        "timestamp": "2022-08-17T13:27:52Z",
        "version": 1,
        "changeset": 125018215,
        "name": "Vigilância Ambiental",
        "office": "government",
        "id": "node/9959282303"
      },
      "geometry": {
        "type": "Point",
        "coordinates": [
          -56.6215333,
          -16.2490578
        ]
      }
    },
    {
      "type": "Feature",
      "id": "node/9959282316",
      "properties": {
        "timestamp": "2022-08-17T13:27:52Z",
        "version": 1,
        "changeset": 125018215,
        "name": "Secretaria de Saúde",
        "office": "government",
        "id": "node/9959282316"
      },
      "geometry": {
        "type": "Point",
        "coordinates": [
          -56.6225139,
          -16.2706489
        ]
      }
    },
    {
      "type": "Feature",
      "id": "node/9959309917",
      "properties": {
        "timestamp": "2022-08-17T13:27:52Z",
        "version": 1,
        "changeset": 125018215,
        "name": "Fórum",
        "office": "government",
        "id": "node/9959309917"
      },
      "geometry": {
        "type": "Point",
        "coordinates": [
          -56.6240358,
          -16.2696704
        ]
      }
    }
  ]
}
