{
  "type": "FeatureCollection",
  "features": [
    {
      "type": "Feature",
      "id": "node/2984360597",
      "properties": {
        "timestamp": "2015-12-03T02:49:07Z",
        "version": 2,
        "changeset": 35718768,
        "amenity": "veterinary",
        "name": "Veterinária Dr Pires",
        "id": "node/2984360597"
      },
      "geometry": {
        "type": "Point",
        "coordinates": [
          -59.9981851,
          -3.0868324
        ]
      }
    },
    {
      "type": "Feature",
      "id": "node/3002701518",
      "properties": {
        "timestamp": "2014-08-07T13:39:05Z",
        "version": 1,
        "changeset": 24596260,
        "amenity": "veterinary",
        "name": "Osso Meu Pet Shop",
        "id": "node/3002701518"
      },
      "geometry": {
        "type": "Point",
        "coordinates": [
          -60.0403091,
          -3.1078655
        ]
      }
    },
    {
      "type": "Feature",
      "id": "node/3012797373",
      "properties": {
        "timestamp": "2014-08-12T18:05:59Z",
        "version": 1,
        "changeset": 24700703,
        "amenity": "veterinary",
        "name": "Amazonvet",
        "id": "node/3012797373"
      },
      "geometry": {
        "type": "Point",
        "coordinates": [
          -59.9789758,
          -3.0840316
        ]
      }
    },
    {
      "type": "Feature",
      "id": "node/3107868731",
      "properties": {
        "timestamp": "2014-10-02T19:31:28Z",
        "version": 1,
        "changeset": 25817545,
        "amenity": "veterinary",
        "name": "PetShop Pincher",
        "id": "node/3107868731"
      },
      "geometry": {
        "type": "Point",
        "coordinates": [
          -59.9619755,
          -3.0593084
        ]
      }
    },
    {
      "type": "Feature",
      "id": "node/3107910599",
      "properties": {
        "timestamp": "2014-10-02T19:51:10Z",
        "version": 1,
        "changeset": 25817545,
        "amenity": "veterinary",
        "name": "Clínica e PetShop Vet Door",
        "id": "node/3107910599"
      },
      "geometry": {
        "type": "Point",
        "coordinates": [
          -59.9649608,
          -3.0505742
        ]
      }
    },
    {
      "type": "Feature",
      "id": "node/3107986402",
      "properties": {
        "timestamp": "2014-10-02T20:35:11Z",
        "version": 1,
        "changeset": 25817545,
        "amenity": "veterinary",
        "name": "PetShop Du Lírio",
        "id": "node/3107986402"
      },
      "geometry": {
        "type": "Point",
        "coordinates": [
          -59.9669295,
          -3.0451477
        ]
      }
    },
    {
      "type": "Feature",
      "id": "node/3108206336",
      "properties": {
        "timestamp": "2014-10-02T21:57:33Z",
        "version": 1,
        "changeset": 25817545,
        "amenity": "veterinary",
        "name": "PetShop Mundo Animal",
        "id": "node/3108206336"
      },
      "geometry": {
        "type": "Point",
        "coordinates": [
          -59.9598458,
          -3.0446549
        ]
      }
    },
    {
      "type": "Feature",
      "id": "node/3110140876",
      "properties": {
        "timestamp": "2014-10-03T20:11:20Z",
        "version": 1,
        "changeset": 25836741,
        "amenity": "veterinary",
        "name": "Dog Show PetShop",
        "id": "node/3110140876"
      },
      "geometry": {
        "type": "Point",
        "coordinates": [
          -59.9587142,
          -3.0569058
        ]
      }
    },
    {
      "type": "Feature",
      "id": "node/3131671400",
      "properties": {
        "timestamp": "2014-10-15T17:47:57Z",
        "version": 1,
        "changeset": 26100365,
        "amenity": "veterinary",
        "name": "Prontovet",
        "id": "node/3131671400"
      },
      "geometry": {
        "type": "Point",
        "coordinates": [
          -60.0088802,
          -3.1064699
        ]
      }
    },
    {
      "type": "Feature",
      "id": "node/4758893443",
      "properties": {
        "timestamp": "2017-05-17T00:47:44Z",
        "version": 3,
        "changeset": 48748845,
        "addr:street": "Rua Arquiteto Renato Braga",
        "addr:suburb": "Parque Dez de Novembro",
        "amenity": "veterinary",
        "name": "Barão Veterinária",
        "id": "node/4758893443"
      },
      "geometry": {
        "type": "Point",
        "coordinates": [
          -59.9980228,
          -3.0775517
        ]
      }
    },
    {
      "type": "Feature",
      "id": "node/11795405940",
      "properties": {
        "timestamp": "2024-04-06T13:27:28Z",
        "version": 1,
        "changeset": 149655492,
        "amenity": "veterinary",
        "name": "AngelPet Clínica Veterinária 24h",
        "opening_hours": "24/7",
        "id": "node/11795405940"
      },
      "geometry": {
        "type": "Point",
        "coordinates": [
          -60.0268111,
          -3.0916266
        ]
      }
    }
  ]
}
