{
  "type": "FeatureCollection",
  "features": [
    {
      "type": "Feature",
      "id": "node/7838125826",
      "properties": {
        "timestamp": "2022-03-28T16:49:36Z",
        "version": 3,
        "changeset": 119030466,
        "amenity": "pharmacy",
        "healthcare": "pharmacy",
        "name": "Rede Somar",
        "id": "node/7838125826"
      },
      "geometry": {
        "type": "Point",
        "coordinates": [
          -54.6660335,
          -30.9805169
        ]
      }
    },
    {
      "type": "Feature",
      "id": "node/9614348063",
      "properties": {
        "timestamp": "2022-03-28T16:49:36Z",
        "version": 1,
        "changeset": 119030466,
        "amenity": "pharmacy",
        "name": "Farmácias Becker",
        "id": "node/9614348063"
      },
      "geometry": {
        "type": "Point",
        "coordinates": [
          -54.6677126,
          -30.9860633
        ]
      }
    },
    {
      "type": "Feature",
      "id": "node/9614348098",
      "properties": {
        "timestamp": "2023-02-03T22:14:02Z",
        "version": 2,
        "changeset": 132059512,
        "amenity": "pharmacy",
        "contact:phone": "+555332438771",
        "name": "MV Pharma",
        "id": "node/9614348098"
      },
      "geometry": {
        "type": "Point",
        "coordinates": [
          -54.6750472,
          -30.9824109
        ]
      }
    },
    {
      "type": "Feature",
      "id": "node/9614348101",
      "properties": {
        "timestamp": "2022-03-28T16:49:36Z",
        "version": 1,
        "changeset": 119030466,
        "amenity": "pharmacy",
        "name": "Farmácias Becker",
        "id": "node/9614348101"
      },
      "geometry": {
        "type": "Point",
        "coordinates": [
          -54.6706872,
          -30.9796351
        ]
      }
    },
    {
      "type": "Feature",
      "id": "node/9895617699",
      "properties": {
        "timestamp": "2022-07-18T17:40:11Z",
        "version": 1,
        "changeset": 123773688,
        "amenity": "pharmacy",
        "name": "AM Pharma",
        "id": "node/9895617699"
      },
      "geometry": {
        "type": "Point",
        "coordinates": [
          -54.6721836,
          -30.9791558
        ]
      }
    },
    {
      "type": "Feature",
      "id": "node/9895813446",
      "properties": {
        "timestamp": "2022-07-18T18:34:27Z",
        "version": 1,
        "changeset": 123775463,
        "amenity": "pharmacy",
        "name": "Farmácias São João",
        "id": "node/9895813446"
      },
      "geometry": {
        "type": "Point",
        "coordinates": [
          -54.6748682,
          -30.9817482
        ]
      }
    },
    {
      "type": "Feature",
      "id": "node/9895813448",
      "properties": {
        "timestamp": "2022-07-18T18:34:27Z",
        "version": 1,
        "changeset": 123775463,
        "amenity": "pharmacy",
        "name": "Farmácias São João",
        "id": "node/9895813448"
      },
      "geometry": {
        "type": "Point",
        "coordinates": [
          -54.6740413,
          -30.978412
        ]
      }
    },
    {
      "type": "Feature",
      "id": "node/9895813449",
      "properties": {
        "timestamp": "2023-02-05T12:42:54Z",
        "version": 2,
        "changeset": 132107572,
        "amenity": "pharmacy",
        "contact:phone": "+555332432891",
        "name": "MV Pharma",
        "id": "node/9895813449"
      },
      "geometry": {
        "type": "Point",
        "coordinates": [
          -54.6740163,
          -30.9782879
        ]
      }
    },
    {
      "type": "Feature",
      "id": "node/10605134345",
      "properties": {
        "timestamp": "2023-02-03T22:52:29Z",
        "version": 1,
        "changeset": 132060303,
        "amenity": "pharmacy",
        "brand": "Panvel",
        "healthcare": "pharmacy",
        "name": "Panvel",
        "id": "node/10605134345"
      },
      "geometry": {
        "type": "Point",
        "coordinates": [
          -54.6758604,
          -30.9845364
        ]
      }
    },
    {
      "type": "Feature",
      "id": "node/10606730532",
      "properties": {
        "timestamp": "2023-02-04T20:23:57Z",
        "version": 1,
        "changeset": 132089256,
        "amenity": "pharmacy",
        "name": "Sanar Farmácias",
        "id": "node/10606730532"
      },
      "geometry": {
        "type": "Point",
        "coordinates": [
          -54.6738854,
          -30.9788592
        ]
      }
    }
  ]
}
