{
  "type": "FeatureCollection",
  "features": [
    {
      "type": "Feature",
      "id": "node/4839078542",
      "properties": {
        "timestamp": "2018-01-06T00:29:53Z",
        "version": 2,
        "changeset": 55201139,
        "name": "Cachoeira da Faxina",
        "waterway": "waterfall",
        "id": "node/4839078542"
      },
      "geometry": {
        "type": "Point",
        "coordinates": [
          -49.6689654,
          -25.4598682
        ]
      }
    },
    {
      "type": "Feature",
      "id": "node/4843811629",
      "properties": {
        "timestamp": "2017-05-09T13:28:11Z",
        "version": 1,
        "changeset": 48532228,
        "name": "Salto Boa Vista",
        "waterway": "waterfall",
        "id": "node/4843811629"
      },
      "geometry": {
        "type": "Point",
        "coordinates": [
          -49.572612,
          -25.3036512
        ]
      }
    },
    {
      "type": "Feature",
      "id": "node/9108093082",
      "properties": {
        "timestamp": "2021-09-20T15:08:22Z",
        "version": 1,
        "changeset": 111454056,
        "name": "Cachoeira do Zé",
        "waterway": "waterfall",
        "id": "node/9108093082"
      },
      "geometry": {
        "type": "Point",
        "coordinates": [
          -49.5095888,
          -25.3664854
        ]
      }
    },
    {
      "type": "Feature",
      "id": "node/10180677267",
      "properties": {
        "timestamp": "2022-11-13T13:49:08Z",
        "version": 1,
        "changeset": 128848008,
        "name": "Cachoeira do Boião",
        "waterway": "waterfall",
        "id": "node/10180677267"
      },
      "geometry": {
        "type": "Point",
        "coordinates": [
          -49.4989452,
          -25.4644542
        ]
      }
    },
    {
      "type": "Feature",
      "id": "node/10255668981",
      "properties": {
        "timestamp": "2022-12-31T01:24:37Z",
        "version": 3,
        "changeset": 130707226,
        "name": "Cachoeiras do Cotó",
        "waterway": "waterfall",
        "id": "node/10255668981"
      },
      "geometry": {
        "type": "Point",
        "coordinates": [
          -49.7726023,
          -25.3374783
        ]
      }
    },
    {
      "type": "Feature",
      "id": "node/10255668983",
      "properties": {
        "timestamp": "2022-12-31T01:24:37Z",
        "version": 2,
        "changeset": 130707226,
        "name": "Cachoeiras do Cotó",
        "waterway": "waterfall",
        "id": "node/10255668983"
      },
      "geometry": {
        "type": "Point",
        "coordinates": [
          -49.7729027,
          -25.3368965
        ]
      }
    },
    {
      "type": "Feature",
      "id": "node/10296153812",
      "properties": {
        "timestamp": "2022-12-31T01:07:39Z",
        "version": 1,
        "changeset": 130707028,
        "name": "Água Potável - Nascente",
        "waterway": "waterfall",
        "id": "node/10296153812"
      },
      "geometry": {
        "type": "Point",
        "coordinates": [
          -49.7672512,
          -25.3363421
        ]
      }
    }
  ]
}
