{
  "type": "FeatureCollection",
  "features": [
    {
      "type": "Feature",
      "id": "node/2832878047",
      "properties": {
        "timestamp": "2014-05-03T01:56:26Z",
        "version": 1,
        "changeset": 22096279,
        "name": "Hotel Panorâmico",
        "tourism": "hotel",
        "id": "node/2832878047"
      },
      "geometry": {
        "type": "Point",
        "coordinates": [
          -52.2494451,
          -15.894298
        ]
      }
    },
    {
      "type": "Feature",
      "id": "node/2832878048",
      "properties": {
        "timestamp": "2014-05-03T01:56:26Z",
        "version": 1,
        "changeset": 22096279,
        "name": "Hotel Pousada do Sol",
        "tourism": "hotel",
        "id": "node/2832878048"
      },
      "geometry": {
        "type": "Point",
        "coordinates": [
          -52.249657,
          -15.894298
        ]
      }
    },
    {
      "type": "Feature",
      "id": "node/2832878049",
      "properties": {
        "timestamp": "2014-05-03T01:56:26Z",
        "version": 1,
        "changeset": 22096279,
        "name": "Pousada Hotel Araguaia",
        "tourism": "hotel",
        "id": "node/2832878049"
      },
      "geometry": {
        "type": "Point",
        "coordinates": [
          -52.2486136,
          -15.8945122
        ]
      }
    },
    {
      "type": "Feature",
      "id": "node/2832878050",
      "properties": {
        "timestamp": "2014-05-03T01:56:26Z",
        "version": 1,
        "changeset": 22096279,
        "name": "Hilton Hotel",
        "tourism": "hotel",
        "id": "node/2832878050"
      },
      "geometry": {
        "type": "Point",
        "coordinates": [
          -52.2484581,
          -15.8942078
        ]
      }
    },
    {
      "type": "Feature",
      "id": "node/2832878051",
      "properties": {
        "timestamp": "2014-05-03T01:56:27Z",
        "version": 1,
        "changeset": 22096279,
        "name": "Hotel Portal da Praia",
        "tourism": "hotel",
        "id": "node/2832878051"
      },
      "geometry": {
        "type": "Point",
        "coordinates": [
          -52.2519959,
          -15.8947237
        ]
      }
    },
    {
      "type": "Feature",
      "id": "node/2832878052",
      "properties": {
        "timestamp": "2014-05-03T01:56:27Z",
        "version": 1,
        "changeset": 22096279,
        "name": "Acalanto Hotel",
        "tourism": "hotel",
        "id": "node/2832878052"
      },
      "geometry": {
        "type": "Point",
        "coordinates": [
          -52.2472591,
          -15.8959593
        ]
      }
    },
    {
      "type": "Feature",
      "id": "node/6817785558",
      "properties": {
        "timestamp": "2019-09-23T15:28:47Z",
        "version": 1,
        "changeset": 74815995,
        "name": "Hotel Pousada Água Santa Aragarças",
        "tourism": "hotel",
        "id": "node/6817785558"
      },
      "geometry": {
        "type": "Point",
        "coordinates": [
          -52.0046517,
          -15.8816858
        ]
      }
    }
  ]
}
