{
  "type": "FeatureCollection",
  "features": [
    {
      "type": "Feature",
      "id": "node/5489443121",
      "properties": {
        "timestamp": "2018-03-19T19:06:52Z",
        "version": 1,
        "changeset": 57327412,
        "name": "Bezerra Hotel",
        "tourism": "hotel",
        "id": "node/5489443121"
      },
      "geometry": {
        "type": "Point",
        "coordinates": [
          -38.0915496,
          -5.1411158
        ]
      }
    },
    {
      "type": "Feature",
      "id": "node/8196275740",
      "properties": {
        "timestamp": "2020-12-05T12:44:58Z",
        "version": 1,
        "changeset": 95332561,
        "addr:housenumber": "1567",
        "addr:street": "Rua Sindulfo Chaves",
        "name": "Murano Center Hotel",
        "tourism": "hotel",
        "id": "node/8196275740"
      },
      "geometry": {
        "type": "Point",
        "coordinates": [
          -38.100811,
          -5.1528125
        ]
      }
    },
    {
      "type": "Feature",
      "id": "node/8305487339",
      "properties": {
        "timestamp": "2021-08-14T14:26:06Z",
        "version": 2,
        "changeset": 109672452,
        "addr:housenumber": "2851",
        "name": "Sítio Sombra da Mangueira",
        "phone": "+55 88 9 9205 4599",
        "tourism": "hotel",
        "id": "node/8305487339"
      },
      "geometry": {
        "type": "Point",
        "coordinates": [
          -38.0831871,
          -5.1434374
        ]
      }
    },
    {
      "type": "Feature",
      "id": "node/8383834689",
      "properties": {
        "timestamp": "2021-02-01T12:16:32Z",
        "version": 1,
        "changeset": 98510593,
        "addr:street": "Rua Joaquim Evaristo Gadelha",
        "name": "O Batião",
        "tourism": "hotel",
        "id": "node/8383834689"
      },
      "geometry": {
        "type": "Point",
        "coordinates": [
          -38.0923119,
          -5.1474376
        ]
      }
    },
    {
      "type": "Feature",
      "id": "node/8399141410",
      "properties": {
        "timestamp": "2021-08-12T21:30:31Z",
        "version": 2,
        "changeset": 109594841,
        "addr:housenumber": "3103",
        "addr:street": "Avenida dos Expedicionários",
        "name": "Hotel São Francisco",
        "phone": "+55 88 9 9696 8181",
        "tourism": "hotel",
        "id": "node/8399141410"
      },
      "geometry": {
        "type": "Point",
        "coordinates": [
          -38.0949364,
          -5.1398125
        ]
      }
    },
    {
      "type": "Feature",
      "id": "node/8434987341",
      "properties": {
        "timestamp": "2021-02-18T13:35:34Z",
        "version": 1,
        "changeset": 99528174,
        "addr:street": "Rua Augusto Fidélis",
        "name": "Roma Hotel",
        "tourism": "hotel",
        "id": "node/8434987341"
      },
      "geometry": {
        "type": "Point",
        "coordinates": [
          -38.0926857,
          -5.1441875
        ]
      }
    },
    {
      "type": "Feature",
      "id": "node/8439041219",
      "properties": {
        "timestamp": "2021-02-19T19:25:22Z",
        "version": 1,
        "changeset": 99614227,
        "addr:housenumber": "588",
        "addr:street": "Rua Manoel Saraiva",
        "name": "Clasaic Hotel",
        "tourism": "hotel",
        "id": "node/8439041219"
      },
      "geometry": {
        "type": "Point",
        "coordinates": [
          -38.0932404,
          -5.143994
        ]
      }
    },
    {
      "type": "Feature",
      "id": "node/8514819148",
      "properties": {
        "timestamp": "2021-08-14T17:33:44Z",
        "version": 2,
        "changeset": 109678117,
        "description": "Hospedaria",
        "name": "Chácara Paraíso Tropical",
        "phone": "+55 88 9 9272 6784",
        "tourism": "hotel",
        "id": "node/8514819148"
      },
      "geometry": {
        "type": "Point",
        "coordinates": [
          -38.0814362,
          -5.1600623
        ]
      }
    },
    {
      "type": "Feature",
      "id": "node/8514854082",
      "properties": {
        "timestamp": "2021-03-13T18:46:50Z",
        "version": 1,
        "changeset": 100965496,
        "name": "Chácara Luiza",
        "tourism": "hotel",
        "id": "node/8514854082"
      },
      "geometry": {
        "type": "Point",
        "coordinates": [
          -38.0794373,
          -5.1615624
        ]
      }
    },
    {
      "type": "Feature",
      "id": "node/8514854083",
      "properties": {
        "timestamp": "2021-08-14T17:26:42Z",
        "version": 2,
        "changeset": 109677916,
        "addr:housenumber": "986",
        "name": "Área de Lazer dos Freitas",
        "phone": "+55 88 9 9444 9755",
        "tourism": "hotel",
        "id": "node/8514854083"
      },
      "geometry": {
        "type": "Point",
        "coordinates": [
          -38.0839386,
          -5.1574373
        ]
      }
    },
    {
      "type": "Feature",
      "id": "node/8598674995",
      "properties": {
        "timestamp": "2021-04-06T10:30:27Z",
        "version": 1,
        "changeset": 102398757,
        "addr:street": "Rodovia Santos Dumont",
        "name": "Intimus motel",
        "tourism": "hotel",
        "id": "node/8598674995"
      },
      "geometry": {
        "type": "Point",
        "coordinates": [
          -38.1550884,
          -5.1302587
        ]
      }
    },
    {
      "type": "Feature",
      "id": "node/8602711503",
      "properties": {
        "timestamp": "2021-04-07T13:23:36Z",
        "version": 1,
        "changeset": 102486548,
        "name": "Rancho Silva Borges",
        "tourism": "hotel",
        "id": "node/8602711503"
      },
      "geometry": {
        "type": "Point",
        "coordinates": [
          -38.0816155,
          -5.1127134
        ]
      }
    }
  ]
}
