{
  "type": "FeatureCollection",
  "features": [
    {
      "type": "Feature",
      "id": "node/2843193077",
      "properties": {
        "timestamp": "2022-03-15T12:30:59Z",
        "version": 4,
        "changeset": 118509739,
        "alt_name": "Cachoeira de Matilde",
        "height": "70",
        "name": "Cachoeira Engenheiro Reeve",
        "waterway": "waterfall",
        "id": "node/2843193077"
      },
      "geometry": {
        "type": "Point",
        "coordinates": [
          -40.8166845,
          -20.5588949
        ]
      }
    },
    {
      "type": "Feature",
      "id": "node/7731405901",
      "properties": {
        "timestamp": "2022-03-15T18:24:06Z",
        "version": 2,
        "changeset": 118522533,
        "name": "Cachoeira Alta",
        "waterway": "waterfall",
        "id": "node/7731405901"
      },
      "geometry": {
        "type": "Point",
        "coordinates": [
          -40.780629,
          -20.6784737
        ]
      }
    },
    {
      "type": "Feature",
      "id": "node/7735055069",
      "properties": {
        "timestamp": "2022-03-23T12:05:37Z",
        "version": 2,
        "changeset": 118818479,
        "name": "Cachoeira do Cafundó",
        "waterway": "waterfall",
        "id": "node/7735055069"
      },
      "geometry": {
        "type": "Point",
        "coordinates": [
          -40.7777183,
          -20.7037861
        ]
      }
    },
    {
      "type": "Feature",
      "id": "node/9580540501",
      "properties": {
        "timestamp": "2022-03-15T18:24:06Z",
        "version": 2,
        "changeset": 118522533,
        "name": "Cachoeira de Piripitinga",
        "waterway": "waterfall",
        "id": "node/9580540501"
      },
      "geometry": {
        "type": "Point",
        "coordinates": [
          -40.7596686,
          -20.594081
        ]
      }
    },
    {
      "type": "Feature",
      "id": "node/9581202688",
      "properties": {
        "timestamp": "2023-11-11T21:28:04Z",
        "version": 2,
        "changeset": 143915613,
        "waterway": "waterfall",
        "id": "node/9581202688"
      },
      "geometry": {
        "type": "Point",
        "coordinates": [
          -40.8822473,
          -20.4794603
        ]
      }
    },
    {
      "type": "Feature",
      "id": "node/9581206049",
      "properties": {
        "timestamp": "2022-03-15T18:24:06Z",
        "version": 2,
        "changeset": 118522533,
        "name": "Cachoeira de Iraceminha",
        "waterway": "waterfall",
        "id": "node/9581206049"
      },
      "geometry": {
        "type": "Point",
        "coordinates": [
          -40.8702554,
          -20.505549
        ]
      }
    },
    {
      "type": "Feature",
      "id": "node/9581208508",
      "properties": {
        "timestamp": "2022-03-20T13:26:18Z",
        "version": 2,
        "changeset": 118695901,
        "waterway": "waterfall",
        "id": "node/9581208508"
      },
      "geometry": {
        "type": "Point",
        "coordinates": [
          -40.8719989,
          -20.505818
        ]
      }
    },
    {
      "type": "Feature",
      "id": "node/9581210473",
      "properties": {
        "timestamp": "2022-03-15T18:24:06Z",
        "version": 2,
        "changeset": 118522533,
        "name": "Cachoeira de Iracema",
        "waterway": "waterfall",
        "id": "node/9581210473"
      },
      "geometry": {
        "type": "Point",
        "coordinates": [
          -40.8694927,
          -20.5027167
        ]
      }
    },
    {
      "type": "Feature",
      "id": "node/9581268936",
      "properties": {
        "timestamp": "2022-03-15T18:24:06Z",
        "version": 2,
        "changeset": 118522533,
        "name": "Cachoeira de Maravilha",
        "waterway": "waterfall",
        "id": "node/9581268936"
      },
      "geometry": {
        "type": "Point",
        "coordinates": [
          -40.8721556,
          -20.5528697
        ]
      }
    },
    {
      "type": "Feature",
      "id": "node/9581269312",
      "properties": {
        "timestamp": "2022-03-15T18:24:06Z",
        "version": 2,
        "changeset": 118522533,
        "name": "Cachoeira do Pinon",
        "waterway": "waterfall",
        "id": "node/9581269312"
      },
      "geometry": {
        "type": "Point",
        "coordinates": [
          -40.8550816,
          -20.5492676
        ]
      }
    },
    {
      "type": "Feature",
      "id": "node/9581272633",
      "properties": {
        "timestamp": "2022-03-15T18:24:06Z",
        "version": 2,
        "changeset": 118522533,
        "name": "Cachoeira da Vovó Lúcia",
        "waterway": "waterfall",
        "id": "node/9581272633"
      },
      "geometry": {
        "type": "Point",
        "coordinates": [
          -40.8491966,
          -20.5997164
        ]
      }
    },
    {
      "type": "Feature",
      "id": "node/9581275237",
      "properties": {
        "timestamp": "2022-03-15T18:24:06Z",
        "version": 2,
        "changeset": 118522533,
        "name": "Cachoeira do Pasto",
        "waterway": "waterfall",
        "id": "node/9581275237"
      },
      "geometry": {
        "type": "Point",
        "coordinates": [
          -40.8653546,
          -20.5562983
        ]
      }
    },
    {
      "type": "Feature",
      "id": "node/9581283542",
      "properties": {
        "timestamp": "2022-03-15T18:24:06Z",
        "version": 2,
        "changeset": 118522533,
        "name": "Cachoeira do Darós",
        "waterway": "waterfall",
        "id": "node/9581283542"
      },
      "geometry": {
        "type": "Point",
        "coordinates": [
          -40.8537904,
          -20.5485179
        ]
      }
    },
    {
      "type": "Feature",
      "id": "node/11181095637",
      "properties": {
        "timestamp": "2023-09-10T13:32:47Z",
        "version": 1,
        "changeset": 141063378,
        "name": "Cachoeira do Paganini",
        "waterway": "waterfall",
        "id": "node/11181095637"
      },
      "geometry": {
        "type": "Point",
        "coordinates": [
          -40.8694645,
          -20.648568
        ]
      }
    },
    {
      "type": "Feature",
      "id": "node/11181669037",
      "properties": {
        "timestamp": "2023-09-10T17:27:08Z",
        "version": 1,
        "changeset": 141073998,
        "name": "Cachoeira do Quintino",
        "waterway": "waterfall",
        "id": "node/11181669037"
      },
      "geometry": {
        "type": "Point",
        "coordinates": [
          -40.9015559,
          -20.6644246
        ]
      }
    }
  ]
}
