{
  "type": "FeatureCollection",
  "features": [
    {
      "type": "Feature",
      "id": "way/339798310",
      "properties": {
        "timestamp": "2018-12-26T15:53:55Z",
        "version": 3,
        "changeset": 65788489,
        "waterway": "waterfall",
        "id": "way/339798310"
      },
      "geometry": {
        "type": "LineString",
        "coordinates": [
          [
            -48.9183629,
            -15.8034522
          ],
          [
            -48.9183165,
            -15.8036461
          ],
          [
            -48.9182673,
            -15.8038212
          ],
          [
            -48.9182615,
            -15.8041367
          ]
        ]
      }
    },
    {
      "type": "Feature",
      "id": "node/2635267101",
      "properties": {
        "timestamp": "2019-02-27T14:15:55Z",
        "version": 2,
        "changeset": 67619402,
        "height": "100",
        "name": "Cachoeira do Lázaro",
        "waterway": "waterfall",
        "id": "node/2635267101"
      },
      "geometry": {
        "type": "Point",
        "coordinates": [
          -48.9182673,
          -15.8038212
        ]
      }
    },
    {
      "type": "Feature",
      "id": "node/2635267118",
      "properties": {
        "timestamp": "2019-02-27T14:12:07Z",
        "version": 2,
        "changeset": 67619269,
        "height": "8",
        "name": "Cachoeira Véu de Noiva",
        "waterway": "waterfall",
        "id": "node/2635267118"
      },
      "geometry": {
        "type": "Point",
        "coordinates": [
          -48.9205112,
          -15.8049034
        ]
      }
    },
    {
      "type": "Feature",
      "id": "node/2635267132",
      "properties": {
        "timestamp": "2019-03-13T12:41:40Z",
        "version": 3,
        "changeset": 68098377,
        "height": "15",
        "name": "Cachoeira Santa Maria",
        "waterway": "waterfall",
        "id": "node/2635267132"
      },
      "geometry": {
        "type": "Point",
        "coordinates": [
          -48.9198195,
          -15.8073937
        ]
      }
    },
    {
      "type": "Feature",
      "id": "node/2635267246",
      "properties": {
        "timestamp": "2016-03-26T01:48:44Z",
        "version": 2,
        "changeset": 38075783,
        "name": "Cachoeira da Meia Lua",
        "waterway": "waterfall",
        "id": "node/2635267246"
      },
      "geometry": {
        "type": "Point",
        "coordinates": [
          -48.9205046,
          -15.828963
        ]
      }
    },
    {
      "type": "Feature",
      "id": "node/3390417922",
      "properties": {
        "timestamp": "2015-03-09T00:53:28Z",
        "version": 1,
        "changeset": 29341887,
        "name": "Cachoeira das Araras",
        "waterway": "waterfall",
        "id": "node/3390417922"
      },
      "geometry": {
        "type": "Point",
        "coordinates": [
          -49.0320062,
          -15.730577
        ]
      }
    },
    {
      "type": "Feature",
      "id": "node/3471642409",
      "properties": {
        "timestamp": "2015-04-22T17:01:37Z",
        "version": 1,
        "changeset": 30409477,
        "name": "Cachoeira dos Dragões",
        "waterway": "waterfall",
        "id": "node/3471642409"
      },
      "geometry": {
        "type": "Point",
        "coordinates": [
          -48.9614839,
          -15.7091995
        ]
      }
    },
    {
      "type": "Feature",
      "id": "node/3566618886",
      "properties": {
        "timestamp": "2022-08-19T15:15:55Z",
        "version": 2,
        "changeset": 125112844,
        "name": "Cachoeira São Jorge",
        "waterway": "waterfall",
        "id": "node/3566618886"
      },
      "geometry": {
        "type": "Point",
        "coordinates": [
          -48.961098,
          -15.7292825
        ]
      }
    },
    {
      "type": "Feature",
      "id": "node/3609255461",
      "properties": {
        "timestamp": "2015-06-21T16:58:13Z",
        "version": 1,
        "changeset": 32121453,
        "name": "Cachoeira do Abade",
        "waterway": "waterfall",
        "id": "node/3609255461"
      },
      "geometry": {
        "type": "Point",
        "coordinates": [
          -48.8850005,
          -15.8392107
        ]
      }
    },
    {
      "type": "Feature",
      "id": "node/3654521078",
      "properties": {
        "timestamp": "2016-06-06T12:34:23Z",
        "version": 2,
        "changeset": 39837577,
        "name": "Cachoeira dos Coqueiros",
        "waterway": "waterfall",
        "id": "node/3654521078"
      },
      "geometry": {
        "type": "Point",
        "coordinates": [
          -48.9073099,
          -15.7921732
        ]
      }
    },
    {
      "type": "Feature",
      "id": "node/5479292622",
      "properties": {
        "timestamp": "2024-02-28T16:08:17Z",
        "version": 2,
        "changeset": 148019315,
        "name": "Cachoeira Lagoa Azul",
        "name:en": "Blue Lagoon Waterfall",
        "waterway": "waterfall",
        "id": "node/5479292622"
      },
      "geometry": {
        "type": "Point",
        "coordinates": [
          -48.9459768,
          -15.8165317
        ]
      }
    },
    {
      "type": "Feature",
      "id": "node/5479293021",
      "properties": {
        "timestamp": "2024-02-28T16:08:17Z",
        "version": 2,
        "changeset": 148019315,
        "name": "Cachoeira Bonsucesso",
        "name:en": "Bonsucesso Waterfall",
        "waterway": "waterfall",
        "id": "node/5479293021"
      },
      "geometry": {
        "type": "Point",
        "coordinates": [
          -48.9458186,
          -15.8168837
        ]
      }
    },
    {
      "type": "Feature",
      "id": "node/5479293022",
      "properties": {
        "timestamp": "2024-02-28T16:08:17Z",
        "version": 2,
        "changeset": 148019315,
        "name": "Cachoeira Pedreira",
        "name:en": "Pedreira Waterfall",
        "waterway": "waterfall",
        "id": "node/5479293022"
      },
      "geometry": {
        "type": "Point",
        "coordinates": [
          -48.9455661,
          -15.8169791
        ]
      }
    },
    {
      "type": "Feature",
      "id": "node/5479293023",
      "properties": {
        "timestamp": "2024-02-28T16:08:17Z",
        "version": 3,
        "changeset": 148019315,
        "name": "Cachoeira Palmito",
        "name:en": "Palmito Waterfall",
        "waterway": "waterfall",
        "id": "node/5479293023"
      },
      "geometry": {
        "type": "Point",
        "coordinates": [
          -48.945412,
          -15.816727
        ]
      }
    },
    {
      "type": "Feature",
      "id": "node/5479293024",
      "properties": {
        "timestamp": "2024-02-28T16:08:17Z",
        "version": 2,
        "changeset": 148019315,
        "name": "Cachoeira Landi",
        "name:en": "Landi Waterfall",
        "waterway": "waterfall",
        "id": "node/5479293024"
      },
      "geometry": {
        "type": "Point",
        "coordinates": [
          -48.9451137,
          -15.8166961
        ]
      }
    },
    {
      "type": "Feature",
      "id": "node/5481118023",
      "properties": {
        "timestamp": "2018-03-15T19:33:06Z",
        "version": 1,
        "changeset": 57222041,
        "name": "Cachoeira Açude",
        "name:en": "Açude Waterfall",
        "waterway": "waterfall",
        "id": "node/5481118023"
      },
      "geometry": {
        "type": "Point",
        "coordinates": [
          -48.9411016,
          -15.8212314
        ]
      }
    },
    {
      "type": "Feature",
      "id": "node/7297108652",
      "properties": {
        "timestamp": "2020-03-15T16:25:05Z",
        "version": 1,
        "changeset": 82221506,
        "name": "Cachoeira da Santa",
        "waterway": "waterfall",
        "id": "node/7297108652"
      },
      "geometry": {
        "type": "Point",
        "coordinates": [
          -48.8722918,
          -15.7871663
        ]
      }
    },
    {
      "type": "Feature",
      "id": "node/7297629067",
      "properties": {
        "timestamp": "2020-06-05T14:32:06Z",
        "version": 2,
        "changeset": 86249660,
        "waterway": "waterfall",
        "id": "node/7297629067"
      },
      "geometry": {
        "type": "Point",
        "coordinates": [
          -48.8839262,
          -15.8359531
        ]
      }
    },
    {
      "type": "Feature",
      "id": "node/8207946387",
      "properties": {
        "timestamp": "2020-12-09T01:49:39Z",
        "version": 1,
        "changeset": 95517741,
        "height": "30",
        "intermittent": "no",
        "waterway": "waterfall",
        "id": "node/8207946387"
      },
      "geometry": {
        "type": "Point",
        "coordinates": [
          -48.8934222,
          -15.8271352
        ]
      }
    },
    {
      "type": "Feature",
      "id": "node/8207966749",
      "properties": {
        "timestamp": "2020-12-09T01:53:35Z",
        "version": 1,
        "changeset": 95517819,
        "intermittent": "no",
        "name": "Cachoeira Omni",
        "waterway": "waterfall",
        "id": "node/8207966749"
      },
      "geometry": {
        "type": "Point",
        "coordinates": [
          -48.8891662,
          -15.8436355
        ]
      }
    },
    {
      "type": "Feature",
      "id": "node/11061999590",
      "properties": {
        "timestamp": "2023-08-04T20:27:58Z",
        "version": 2,
        "changeset": 139456868,
        "height": "1",
        "name": "Espumão",
        "waterway": "waterfall",
        "width": "4",
        "id": "node/11061999590"
      },
      "geometry": {
        "type": "Point",
        "coordinates": [
          -48.9590776,
          -15.8496901
        ]
      }
    },
    {
      "type": "Feature",
      "id": "node/11090427435",
      "properties": {
        "timestamp": "2023-10-27T19:23:31Z",
        "version": 3,
        "changeset": 143226489,
        "height": "1",
        "name": "Lajes",
        "waterway": "waterfall",
        "width": "2",
        "id": "node/11090427435"
      },
      "geometry": {
        "type": "Point",
        "coordinates": [
          -48.9677477,
          -15.8467072
        ]
      }
    },
    {
      "type": "Feature",
      "id": "node/11672832264",
      "properties": {
        "timestamp": "2024-02-28T16:08:17Z",
        "version": 2,
        "changeset": 148019315,
        "name": "Cachoeira do Macaco",
        "name:en": "Blue Lagoon Waterfall",
        "waterway": "waterfall",
        "id": "node/11672832264"
      },
      "geometry": {
        "type": "Point",
        "coordinates": [
          -48.9687146,
          -15.8106945
        ]
      }
    }
  ]
}
