{
  "type": "FeatureCollection",
  "features": [
    {
      "type": "Feature",
      "id": "node/5427556112",
      "properties": {
        "timestamp": "2020-02-15T01:06:33Z",
        "version": 5,
        "changeset": 81030342,
        "amenity": "bicycle_rental",
        "capacity": "11",
        "name": "BikeVV - Estação Praça do Ciclista",
        "id": "node/5427556112"
      },
      "geometry": {
        "type": "Point",
        "coordinates": [
          -40.3046308,
          -20.3747939
        ]
      }
    },
    {
      "type": "Feature",
      "id": "node/5465852043",
      "properties": {
        "timestamp": "2018-03-09T03:24:47Z",
        "version": 1,
        "changeset": 57017619,
        "amenity": "bicycle_rental",
        "capacity": "15",
        "name": "BikeVV - Estação Praça da Garoto",
        "id": "node/5465852043"
      },
      "geometry": {
        "type": "Point",
        "coordinates": [
          -40.3081412,
          -20.3372908
        ]
      }
    },
    {
      "type": "Feature",
      "id": "node/5465852044",
      "properties": {
        "timestamp": "2018-03-09T03:24:47Z",
        "version": 1,
        "changeset": 57017619,
        "amenity": "bicycle_rental",
        "capacity": "15",
        "name": "BikeVV - Estação Santa Cruz",
        "id": "node/5465852044"
      },
      "geometry": {
        "type": "Point",
        "coordinates": [
          -40.3060578,
          -20.3370092
        ]
      }
    },
    {
      "type": "Feature",
      "id": "node/5465852045",
      "properties": {
        "timestamp": "2018-03-09T03:24:47Z",
        "version": 1,
        "changeset": 57017619,
        "amenity": "bicycle_rental",
        "capacity": "15",
        "name": "BikeVV - Estação Pronto Atendimento da Glória",
        "id": "node/5465852045"
      },
      "geometry": {
        "type": "Point",
        "coordinates": [
          -40.3064185,
          -20.3393129
        ]
      }
    },
    {
      "type": "Feature",
      "id": "node/5465852046",
      "properties": {
        "timestamp": "2020-08-05T19:12:45Z",
        "version": 3,
        "changeset": 88997655,
        "amenity": "bicycle_rental",
        "capacity": "15",
        "name": "BikeVV - Estação Prainha",
        "id": "node/5465852046"
      },
      "geometry": {
        "type": "Point",
        "coordinates": [
          -40.2919608,
          -20.3296469
        ]
      }
    },
    {
      "type": "Feature",
      "id": "node/5465852047",
      "properties": {
        "timestamp": "2020-08-04T15:19:51Z",
        "version": 2,
        "changeset": 88936865,
        "amenity": "bicycle_rental",
        "capacity": "19",
        "name": "BikeVV - Estação Shopping da Terra",
        "id": "node/5465852047"
      },
      "geometry": {
        "type": "Point",
        "coordinates": [
          -40.2988272,
          -20.3349871
        ]
      }
    },
    {
      "type": "Feature",
      "id": "node/5465852048",
      "properties": {
        "timestamp": "2020-08-03T03:19:20Z",
        "version": 2,
        "changeset": 88855741,
        "amenity": "bicycle_rental",
        "capacity": "19",
        "name": "BikeVV - Estação Praça Duque de Caxias",
        "id": "node/5465852048"
      },
      "geometry": {
        "type": "Point",
        "coordinates": [
          -40.2933126,
          -20.3360491
        ]
      }
    },
    {
      "type": "Feature",
      "id": "node/5465852049",
      "properties": {
        "timestamp": "2018-03-09T03:24:47Z",
        "version": 1,
        "changeset": 57017619,
        "amenity": "bicycle_rental",
        "capacity": "19",
        "name": "BikeVV - Estação McDonald's",
        "id": "node/5465852049"
      },
      "geometry": {
        "type": "Point",
        "coordinates": [
          -40.2897835,
          -20.3363389
        ]
      }
    },
    {
      "type": "Feature",
      "id": "node/5465852050",
      "properties": {
        "timestamp": "2018-03-09T03:24:47Z",
        "version": 1,
        "changeset": 57017619,
        "amenity": "bicycle_rental",
        "capacity": "19",
        "name": "BikeVV - Estação Curva da Sereia",
        "id": "node/5465852050"
      },
      "geometry": {
        "type": "Point",
        "coordinates": [
          -40.2741918,
          -20.3317049
        ]
      }
    },
    {
      "type": "Feature",
      "id": "node/5465852051",
      "properties": {
        "timestamp": "2025-03-08T01:05:19Z",
        "version": 3,
        "changeset": 163348229,
        "amenity": "bicycle_rental",
        "bicycle_rental": "docking_station",
        "capacity": "11",
        "name": "BikeVV - Estação Champagnat",
        "id": "node/5465852051"
      },
      "geometry": {
        "type": "Point",
        "coordinates": [
          -40.2820671,
          -20.3374402
        ]
      }
    },
    {
      "type": "Feature",
      "id": "node/5465852052",
      "properties": {
        "timestamp": "2018-03-09T03:24:47Z",
        "version": 1,
        "changeset": 57017619,
        "amenity": "bicycle_rental",
        "capacity": "18",
        "name": "BikeVV - Estação Terminal de Vila Velha",
        "id": "node/5465852052"
      },
      "geometry": {
        "type": "Point",
        "coordinates": [
          -40.2953189,
          -20.3426798
        ]
      }
    },
    {
      "type": "Feature",
      "id": "node/5465852053",
      "properties": {
        "timestamp": "2020-07-29T16:28:49Z",
        "version": 2,
        "changeset": 88689209,
        "amenity": "bicycle_rental",
        "capacity": "15",
        "name": "BikeVV - Estação Maranhão",
        "id": "node/5465852053"
      },
      "geometry": {
        "type": "Point",
        "coordinates": [
          -40.283817,
          -20.3431143
        ]
      }
    },
    {
      "type": "Feature",
      "id": "node/5465852054",
      "properties": {
        "timestamp": "2018-03-09T03:24:48Z",
        "version": 1,
        "changeset": 57017619,
        "amenity": "bicycle_rental",
        "capacity": "17",
        "name": "BikeVV - Estação Praça Dom Cavati",
        "id": "node/5465852054"
      },
      "geometry": {
        "type": "Point",
        "coordinates": [
          -40.2885979,
          -20.3460981
        ]
      }
    },
    {
      "type": "Feature",
      "id": "node/5465852055",
      "properties": {
        "timestamp": "2018-03-09T03:24:48Z",
        "version": 1,
        "changeset": 57017619,
        "amenity": "bicycle_rental",
        "capacity": "11",
        "name": "BikeVV - Estação Jair de Andrade",
        "id": "node/5465852055"
      },
      "geometry": {
        "type": "Point",
        "coordinates": [
          -40.2837981,
          -20.3521412
        ]
      }
    },
    {
      "type": "Feature",
      "id": "node/5465852056",
      "properties": {
        "timestamp": "2018-03-09T03:24:48Z",
        "version": 1,
        "changeset": 57017619,
        "amenity": "bicycle_rental",
        "capacity": "18",
        "name": "BikeVV - Estação Shopping Vila Velha",
        "id": "node/5465852056"
      },
      "geometry": {
        "type": "Point",
        "coordinates": [
          -40.2957943,
          -20.352433
        ]
      }
    },
    {
      "type": "Feature",
      "id": "node/5465852057",
      "properties": {
        "timestamp": "2018-09-03T02:07:03Z",
        "version": 2,
        "changeset": 62233105,
        "amenity": "bicycle_rental",
        "capacity": "9",
        "name": "BikeVV - Estação Prefeitura",
        "id": "node/5465852057"
      },
      "geometry": {
        "type": "Point",
        "coordinates": [
          -40.2986388,
          -20.3595332
        ]
      }
    },
    {
      "type": "Feature",
      "id": "node/5465852062",
      "properties": {
        "timestamp": "2018-03-09T03:24:48Z",
        "version": 1,
        "changeset": 57017619,
        "amenity": "bicycle_rental",
        "capacity": "7",
        "name": "BikeVV - Estação Bob's",
        "id": "node/5465852062"
      },
      "geometry": {
        "type": "Point",
        "coordinates": [
          -40.2945082,
          -20.3600839
        ]
      }
    },
    {
      "type": "Feature",
      "id": "node/5465852063",
      "properties": {
        "timestamp": "2018-03-09T03:24:48Z",
        "version": 1,
        "changeset": 57017619,
        "amenity": "bicycle_rental",
        "capacity": "10",
        "name": "BikeVV - Estação Praça Coqueiral de Itaparica",
        "id": "node/5465852063"
      },
      "geometry": {
        "type": "Point",
        "coordinates": [
          -40.3031778,
          -20.3645631
        ]
      }
    },
    {
      "type": "Feature",
      "id": "node/5465852064",
      "properties": {
        "timestamp": "2018-03-09T03:24:48Z",
        "version": 1,
        "changeset": 57017619,
        "amenity": "bicycle_rental",
        "capacity": "12",
        "name": "BikeVV - Estação Itaiabaia",
        "id": "node/5465852064"
      },
      "geometry": {
        "type": "Point",
        "coordinates": [
          -40.2996024,
          -20.3659134
        ]
      }
    },
    {
      "type": "Feature",
      "id": "node/5465852065",
      "properties": {
        "timestamp": "2020-07-05T21:50:08Z",
        "version": 3,
        "changeset": 87567341,
        "amenity": "bicycle_rental",
        "capacity": "8",
        "name": "BikeVV - Estação Embratel",
        "id": "node/5465852065"
      },
      "geometry": {
        "type": "Point",
        "coordinates": [
          -40.3113773,
          -20.3842195
        ]
      }
    }
  ]
}
