{
  "type": "FeatureCollection",
  "features": [
    {
      "type": "Feature",
      "id": "node/10908311515",
      "properties": {
        "timestamp": "2023-05-18T13:15:15Z",
        "version": 1,
        "changeset": 136254854,
        "amenity": "dentist",
        "healthcare": "dentist",
        "name": "Consultório Odontológico",
        "id": "node/10908311515"
      },
      "geometry": {
        "type": "Point",
        "coordinates": [
          -45.9461034,
          -22.2137086
        ]
      }
    },
    {
      "type": "Feature",
      "id": "node/10981198533",
      "properties": {
        "timestamp": "2023-06-16T17:50:24Z",
        "version": 1,
        "changeset": 137423414,
        "amenity": "dentist",
        "healthcare": "dentist",
        "name": "Odonto Vaz",
        "id": "node/10981198533"
      },
      "geometry": {
        "type": "Point",
        "coordinates": [
          -45.9369263,
          -22.2298412
        ]
      }
    },
    {
      "type": "Feature",
      "id": "node/11534987388",
      "properties": {
        "timestamp": "2024-01-20T20:54:26Z",
        "version": 1,
        "changeset": 146492753,
        "amenity": "dentist",
        "healthcare": "dentist",
        "name": "Odontologia Dr. Joaquim Mendes",
        "id": "node/11534987388"
      },
      "geometry": {
        "type": "Point",
        "coordinates": [
          -45.9288567,
          -22.2254594
        ]
      }
    },
    {
      "type": "Feature",
      "id": "node/11549415848",
      "properties": {
        "timestamp": "2024-01-25T11:06:43Z",
        "version": 1,
        "changeset": 146668526,
        "amenity": "dentist",
        "healthcare": "dentist",
        "name": "Maria Eduarda Hamilton",
        "id": "node/11549415848"
      },
      "geometry": {
        "type": "Point",
        "coordinates": [
          -45.9266181,
          -22.2276644
        ]
      }
    },
    {
      "type": "Feature",
      "id": "node/11569199420",
      "properties": {
        "timestamp": "2024-01-30T13:37:36Z",
        "version": 1,
        "changeset": 146864468,
        "amenity": "dentist",
        "healthcare": "dentist",
        "name": "Dr. Enilson de Souza",
        "id": "node/11569199420"
      },
      "geometry": {
        "type": "Point",
        "coordinates": [
          -45.9288924,
          -22.2230985
        ]
      }
    },
    {
      "type": "Feature",
      "id": "node/11569223170",
      "properties": {
        "timestamp": "2024-01-30T13:37:36Z",
        "version": 1,
        "changeset": 146864468,
        "amenity": "dentist",
        "healthcare": "dentist",
        "name": "Intensity",
        "id": "node/11569223170"
      },
      "geometry": {
        "type": "Point",
        "coordinates": [
          -45.9292909,
          -22.2228119
        ]
      }
    },
    {
      "type": "Feature",
      "id": "node/11569225571",
      "properties": {
        "timestamp": "2024-01-30T13:37:28Z",
        "version": 1,
        "changeset": 146864468,
        "amenity": "dentist",
        "healthcare": "dentist",
        "name": "Dr. Ricardo Cunha",
        "id": "node/11569225571"
      },
      "geometry": {
        "type": "Point",
        "coordinates": [
          -45.9262504,
          -22.2230613
        ]
      }
    },
    {
      "type": "Feature",
      "id": "node/11575073863",
      "properties": {
        "timestamp": "2024-01-31T22:45:19Z",
        "version": 1,
        "changeset": 146924249,
        "amenity": "dentist",
        "healthcare": "dentist",
        "name": "Palato Odontologia",
        "id": "node/11575073863"
      },
      "geometry": {
        "type": "Point",
        "coordinates": [
          -45.9261317,
          -22.2276528
        ]
      }
    },
    {
      "type": "Feature",
      "id": "node/11575101409",
      "properties": {
        "timestamp": "2024-01-31T22:45:27Z",
        "version": 1,
        "changeset": 146924249,
        "amenity": "dentist",
        "healthcare": "dentist",
        "name": "Odontologia Dr. Luiz Delfino",
        "id": "node/11575101409"
      },
      "geometry": {
        "type": "Point",
        "coordinates": [
          -45.9301719,
          -22.2225703
        ]
      }
    },
    {
      "type": "Feature",
      "id": "node/11581990607",
      "properties": {
        "timestamp": "2024-02-03T15:24:27Z",
        "version": 1,
        "changeset": 147023929,
        "amenity": "dentist",
        "healthcare": "dentist",
        "name": "Oral Sin",
        "id": "node/11581990607"
      },
      "geometry": {
        "type": "Point",
        "coordinates": [
          -45.9329914,
          -22.2273191
        ]
      }
    },
    {
      "type": "Feature",
      "id": "node/11582020156",
      "properties": {
        "timestamp": "2024-02-03T15:22:13Z",
        "version": 1,
        "changeset": 147023929,
        "amenity": "dentist",
        "healthcare": "dentist",
        "name": "Oral & Face",
        "id": "node/11582020156"
      },
      "geometry": {
        "type": "Point",
        "coordinates": [
          -45.940244,
          -22.2322206
        ]
      }
    },
    {
      "type": "Feature",
      "id": "node/11582024982",
      "properties": {
        "timestamp": "2024-02-03T15:24:28Z",
        "version": 1,
        "changeset": 147023929,
        "amenity": "dentist",
        "healthcare": "dentist",
        "name": "Odontologia Oliveira",
        "id": "node/11582024982"
      },
      "geometry": {
        "type": "Point",
        "coordinates": [
          -45.9324823,
          -22.2269706
        ]
      }
    },
    {
      "type": "Feature",
      "id": "node/11587612000",
      "properties": {
        "timestamp": "2024-02-05T17:11:31Z",
        "version": 1,
        "changeset": 147102145,
        "amenity": "dentist",
        "healthcare": "dentist",
        "name": "Amor Saúde",
        "id": "node/11587612000"
      },
      "geometry": {
        "type": "Point",
        "coordinates": [
          -45.9302921,
          -22.2270753
        ]
      }
    },
    {
      "type": "Feature",
      "id": "node/11778893419",
      "properties": {
        "timestamp": "2024-04-01T20:46:38Z",
        "version": 1,
        "changeset": 149452383,
        "amenity": "dentist",
        "healthcare": "dentist",
        "name": "Goes Odontologia",
        "id": "node/11778893419"
      },
      "geometry": {
        "type": "Point",
        "coordinates": [
          -45.9273513,
          -22.223789
        ]
      }
    },
    {
      "type": "Feature",
      "id": "node/11822098027",
      "properties": {
        "timestamp": "2024-04-16T13:40:22Z",
        "version": 1,
        "changeset": 150086061,
        "amenity": "dentist",
        "healthcare": "dentist",
        "name": "Consultório Odontológico Costa",
        "id": "node/11822098027"
      },
      "geometry": {
        "type": "Point",
        "coordinates": [
          -45.9268298,
          -22.2234219
        ]
      }
    },
    {
      "type": "Feature",
      "id": "node/11822114686",
      "properties": {
        "timestamp": "2024-04-16T13:40:27Z",
        "version": 1,
        "changeset": 150086061,
        "amenity": "dentist",
        "healthcare": "dentist",
        "name": "Lessa",
        "id": "node/11822114686"
      },
      "geometry": {
        "type": "Point",
        "coordinates": [
          -45.9294681,
          -22.2231928
        ]
      }
    },
    {
      "type": "Feature",
      "id": "node/11825105949",
      "properties": {
        "timestamp": "2024-04-17T16:02:57Z",
        "version": 1,
        "changeset": 150137034,
        "amenity": "dentist",
        "healthcare": "dentist",
        "name": "Uniodonto",
        "id": "node/11825105949"
      },
      "geometry": {
        "type": "Point",
        "coordinates": [
          -45.9346312,
          -22.2287079
        ]
      }
    },
    {
      "type": "Feature",
      "id": "node/11825113676",
      "properties": {
        "timestamp": "2024-04-17T16:02:54Z",
        "version": 1,
        "changeset": 150137034,
        "amenity": "dentist",
        "healthcare": "dentist",
        "name": "Nabak & Castro",
        "id": "node/11825113676"
      },
      "geometry": {
        "type": "Point",
        "coordinates": [
          -45.9342097,
          -22.2283935
        ]
      }
    },
    {
      "type": "Feature",
      "id": "node/12065327907",
      "properties": {
        "timestamp": "2024-07-20T21:33:35Z",
        "version": 1,
        "changeset": 154196504,
        "amenity": "dentist",
        "healthcare": "dentist",
        "id": "node/12065327907"
      },
      "geometry": {
        "type": "Point",
        "coordinates": [
          -45.9252468,
          -22.223055
        ]
      }
    },
    {
      "type": "Feature",
      "id": "node/12400774686",
      "properties": {
        "timestamp": "2024-12-06T18:54:12Z",
        "version": 1,
        "changeset": 160005468,
        "amenity": "dentist",
        "healthcare": "dentist",
        "name": "Ranulpho Giacomelli Jr",
        "id": "node/12400774686"
      },
      "geometry": {
        "type": "Point",
        "coordinates": [
          -45.935364,
          -22.2288495
        ]
      }
    }
  ]
}
