{
  "type": "FeatureCollection",
  "features": [
    {
      "type": "Feature",
      "id": "node/10908311515",
      "properties": {
        "timestamp": "2023-05-18T13:15:15Z",
        "version": 1,
        "changeset": 136254854,
        "amenity": "dentist",
        "healthcare": "dentist",
        "name": "Consultório Odontológico",
        "id": "node/10908311515"
      },
      "geometry": {
        "type": "Point",
        "coordinates": [
          -45.9461034,
          -22.2137086
        ]
      }
    },
    {
      "type": "Feature",
      "id": "node/10981198533",
      "properties": {
        "timestamp": "2023-06-16T17:50:24Z",
        "version": 1,
        "changeset": 137423414,
        "amenity": "dentist",
        "healthcare": "dentist",
        "name": "Odonto Vaz",
        "id": "node/10981198533"
      },
      "geometry": {
        "type": "Point",
        "coordinates": [
          -45.9369263,
          -22.2298412
        ]
      }
    },
    {
      "type": "Feature",
      "id": "node/11534987388",
      "properties": {
        "timestamp": "2024-01-20T20:54:26Z",
        "version": 1,
        "changeset": 146492753,
        "amenity": "dentist",
        "healthcare": "dentist",
        "name": "Odontologia Dr. Joaquim Mendes",
        "id": "node/11534987388"
      },
      "geometry": {
        "type": "Point",
        "coordinates": [
          -45.9288567,
          -22.2254594
        ]
      }
    },
    {
      "type": "Feature",
      "id": "node/11569199420",
      "properties": {
        "timestamp": "2024-01-30T13:37:36Z",
        "version": 1,
        "changeset": 146864468,
        "amenity": "dentist",
        "healthcare": "dentist",
        "name": "Dr. Enilson de Souza",
        "id": "node/11569199420"
      },
      "geometry": {
        "type": "Point",
        "coordinates": [
          -45.9288924,
          -22.2230985
        ]
      }
    },
    {
      "type": "Feature",
      "id": "node/11569223170",
      "properties": {
        "timestamp": "2024-01-30T13:37:36Z",
        "version": 1,
        "changeset": 146864468,
        "amenity": "dentist",
        "healthcare": "dentist",
        "name": "Intensity",
        "id": "node/11569223170"
      },
      "geometry": {
        "type": "Point",
        "coordinates": [
          -45.9292909,
          -22.2228119
        ]
      }
    },
    {
      "type": "Feature",
      "id": "node/11569225571",
      "properties": {
        "timestamp": "2024-01-30T13:37:28Z",
        "version": 1,
        "changeset": 146864468,
        "amenity": "dentist",
        "healthcare": "dentist",
        "name": "Dr. Ricardo Cunha",
        "id": "node/11569225571"
      },
      "geometry": {
        "type": "Point",
        "coordinates": [
          -45.9262504,
          -22.2230613
        ]
      }
    },
    {
      "type": "Feature",
      "id": "node/11575073863",
      "properties": {
        "timestamp": "2024-01-31T22:45:19Z",
        "version": 1,
        "changeset": 146924249,
        "amenity": "dentist",
        "healthcare": "dentist",
        "name": "Palato Odontologia",
        "id": "node/11575073863"
      },
      "geometry": {
        "type": "Point",
        "coordinates": [
          -45.9261317,
          -22.2276528
        ]
      }
    },
    {
      "type": "Feature",
      "id": "node/11575101409",
      "properties": {
        "timestamp": "2024-01-31T22:45:27Z",
        "version": 1,
        "changeset": 146924249,
        "amenity": "dentist",
        "healthcare": "dentist",
        "name": "Odontologia Dr. Luiz Delfino",
        "id": "node/11575101409"
      },
      "geometry": {
        "type": "Point",
        "coordinates": [
          -45.9301719,
          -22.2225703
        ]
      }
    },
    {
      "type": "Feature",
      "id": "node/11581990607",
      "properties": {
        "timestamp": "2024-02-03T15:24:27Z",
        "version": 1,
        "changeset": 147023929,
        "amenity": "dentist",
        "healthcare": "dentist",
        "name": "Oral Sin",
        "id": "node/11581990607"
      },
      "geometry": {
        "type": "Point",
        "coordinates": [
          -45.9329914,
          -22.2273191
        ]
      }
    },
    {
      "type": "Feature",
      "id": "node/11582020156",
      "properties": {
        "timestamp": "2024-02-03T15:22:13Z",
        "version": 1,
        "changeset": 147023929,
        "amenity": "dentist",
        "healthcare": "dentist",
        "name": "Oral & Face",
        "id": "node/11582020156"
      },
      "geometry": {
        "type": "Point",
        "coordinates": [
          -45.940244,
          -22.2322206
        ]
      }
    },
    {
      "type": "Feature",
      "id": "node/11582024982",
      "properties": {
        "timestamp": "2024-02-03T15:24:28Z",
        "version": 1,
        "changeset": 147023929,
        "amenity": "dentist",
        "healthcare": "dentist",
        "name": "Odontologia Oliveira",
        "id": "node/11582024982"
      },
      "geometry": {
        "type": "Point",
        "coordinates": [
          -45.9324823,
          -22.2269706
        ]
      }
    }
  ]
}
