{
  "type": "FeatureCollection",
  "features": [
    {
      "type": "Feature",
      "id": "node/4102072191",
      "properties": {
        "timestamp": "2016-09-04T21:42:12Z",
        "version": 2,
        "changeset": 41917552,
        "amenity": "doctors",
        "name": "Centro Médico",
        "source": "IBGE",
        "id": "node/4102072191"
      },
      "geometry": {
        "type": "Point",
        "coordinates": [
          -45.9255197,
          -22.2194658
        ]
      }
    },
    {
      "type": "Feature",
      "id": "node/11569221583",
      "properties": {
        "timestamp": "2024-01-30T13:37:37Z",
        "version": 1,
        "changeset": 146864468,
        "amenity": "doctors",
        "healthcare": "doctor",
        "name": "Medicina Integral",
        "id": "node/11569221583"
      },
      "geometry": {
        "type": "Point",
        "coordinates": [
          -45.9295644,
          -22.2226246
        ]
      }
    },
    {
      "type": "Feature",
      "id": "node/11575010362",
      "properties": {
        "timestamp": "2024-01-31T22:45:21Z",
        "version": 1,
        "changeset": 146924249,
        "amenity": "doctors",
        "healthcare": "doctor",
        "name": "Ofir Saúde",
        "id": "node/11575010362"
      },
      "geometry": {
        "type": "Point",
        "coordinates": [
          -45.928875,
          -22.2270787
        ]
      }
    },
    {
      "type": "Feature",
      "id": "node/11575072252",
      "properties": {
        "timestamp": "2024-01-31T22:45:24Z",
        "version": 1,
        "changeset": 146924249,
        "amenity": "doctors",
        "healthcare": "doctor",
        "name": "Clínica Kallás",
        "id": "node/11575072252"
      },
      "geometry": {
        "type": "Point",
        "coordinates": [
          -45.9306504,
          -22.2246981
        ]
      }
    },
    {
      "type": "Feature",
      "id": "node/11581691222",
      "properties": {
        "timestamp": "2024-02-03T11:57:29Z",
        "version": 1,
        "changeset": 147017166,
        "amenity": "doctors",
        "healthcare": "doctor",
        "name": "Clínica Referência",
        "id": "node/11581691222"
      },
      "geometry": {
        "type": "Point",
        "coordinates": [
          -45.9315985,
          -22.223802
        ]
      }
    },
    {
      "type": "Feature",
      "id": "node/11582001467",
      "properties": {
        "timestamp": "2024-02-03T15:22:27Z",
        "version": 1,
        "changeset": 147023929,
        "amenity": "doctors",
        "healthcare": "doctor",
        "name": "Clínica Médica e Psicológica",
        "id": "node/11582001467"
      },
      "geometry": {
        "type": "Point",
        "coordinates": [
          -45.9339614,
          -22.2282454
        ]
      }
    },
    {
      "type": "Feature",
      "id": "node/11582022900",
      "properties": {
        "timestamp": "2024-02-03T15:22:12Z",
        "version": 1,
        "changeset": 147023929,
        "amenity": "doctors",
        "healthcare": "doctor",
        "name": "Doctor Já",
        "id": "node/11582022900"
      },
      "geometry": {
        "type": "Point",
        "coordinates": [
          -45.9397315,
          -22.2318919
        ]
      }
    },
    {
      "type": "Feature",
      "id": "node/11589735480",
      "properties": {
        "timestamp": "2024-02-05T21:00:05Z",
        "version": 1,
        "changeset": 147109652,
        "amenity": "doctors",
        "healthcare": "doctor",
        "name": "Corpus Ocupacional",
        "id": "node/11589735480"
      },
      "geometry": {
        "type": "Point",
        "coordinates": [
          -45.9296525,
          -22.2227363
        ]
      }
    },
    {
      "type": "Feature",
      "id": "node/11589756998",
      "properties": {
        "timestamp": "2024-02-05T21:00:04Z",
        "version": 1,
        "changeset": 147109652,
        "amenity": "doctors",
        "healthcare": "doctor",
        "name": "Clínica Villela",
        "id": "node/11589756998"
      },
      "geometry": {
        "type": "Point",
        "coordinates": [
          -45.929446,
          -22.222882
        ]
      }
    },
    {
      "type": "Feature",
      "id": "node/11590260126",
      "properties": {
        "timestamp": "2024-02-06T01:16:31Z",
        "version": 1,
        "changeset": 147114709,
        "amenity": "doctors",
        "healthcare": "doctor",
        "name": "Clínica do Pulmão",
        "id": "node/11590260126"
      },
      "geometry": {
        "type": "Point",
        "coordinates": [
          -45.9353664,
          -22.2292514
        ]
      }
    },
    {
      "type": "Feature",
      "id": "node/11591304040",
      "properties": {
        "timestamp": "2024-02-06T10:56:11Z",
        "version": 1,
        "changeset": 147129761,
        "amenity": "doctors",
        "healthcare": "doctor",
        "name": "Clínica Corpus",
        "id": "node/11591304040"
      },
      "geometry": {
        "type": "Point",
        "coordinates": [
          -45.9311178,
          -22.2246993
        ]
      }
    },
    {
      "type": "Feature",
      "id": "node/11591365180",
      "properties": {
        "timestamp": "2024-02-06T10:56:11Z",
        "version": 1,
        "changeset": 147129761,
        "amenity": "doctors",
        "healthcare": "doctor",
        "name": "Oto Clínica",
        "id": "node/11591365180"
      },
      "geometry": {
        "type": "Point",
        "coordinates": [
          -45.931231,
          -22.2245959
        ]
      }
    },
    {
      "type": "Feature",
      "id": "node/11591377570",
      "properties": {
        "timestamp": "2024-02-06T10:56:18Z",
        "version": 1,
        "changeset": 147129761,
        "amenity": "doctors",
        "healthcare": "doctor",
        "healthcare:speciality": "ophthalmology",
        "name": "Instituto da Visão",
        "id": "node/11591377570"
      },
      "geometry": {
        "type": "Point",
        "coordinates": [
          -45.9256562,
          -22.2276864
        ]
      }
    },
    {
      "type": "Feature",
      "id": "node/11654040228",
      "properties": {
        "timestamp": "2024-02-22T20:22:15Z",
        "version": 1,
        "changeset": 147788423,
        "amenity": "doctors",
        "healthcare": "doctor",
        "healthcare:speciality": "ophthalmology",
        "name": "Oftalmo Laser",
        "id": "node/11654040228"
      },
      "geometry": {
        "type": "Point",
        "coordinates": [
          -45.9209149,
          -22.2216733
        ]
      }
    },
    {
      "type": "Feature",
      "id": "node/11730495256",
      "properties": {
        "timestamp": "2024-03-14T12:12:49Z",
        "version": 1,
        "changeset": 148638582,
        "amenity": "doctors",
        "healthcare": "doctor",
        "name": "Isominas Medicina Empresarial",
        "id": "node/11730495256"
      },
      "geometry": {
        "type": "Point",
        "coordinates": [
          -45.9268431,
          -22.2274436
        ]
      }
    }
  ]
}
