{
  "type": "FeatureCollection",
  "features": [
    {
      "type": "Feature",
      "id": "node/11123587818",
      "properties": {
        "timestamp": "2023-08-17T18:34:47Z",
        "version": 1,
        "changeset": 140026696,
        "addr:city": "Pouso Alegre",
        "addr:housenumber": "470",
        "addr:postcode": "37554-210",
        "addr:street": "Avenida Prefeito Tuany Toledo",
        "addr:suburb": "Fátima",
        "amenity": "kindergarten",
        "name": "Anglo Pouso Alegre Infantil",
        "preschool": "yes",
        "id": "node/11123587818"
      },
      "geometry": {
        "type": "Point",
        "coordinates": [
          -45.9168279,
          -22.2197942
        ]
      }
    },
    {
      "type": "Feature",
      "id": "node/11447154502",
      "properties": {
        "timestamp": "2023-12-23T20:15:21Z",
        "version": 1,
        "changeset": 145449185,
        "amenity": "kindergarten",
        "name": "Ciranda do Saber",
        "id": "node/11447154502"
      },
      "geometry": {
        "type": "Point",
        "coordinates": [
          -45.9343382,
          -22.2227803
        ]
      }
    },
    {
      "type": "Feature",
      "id": "node/11569168934",
      "properties": {
        "timestamp": "2024-01-30T13:37:29Z",
        "version": 1,
        "changeset": 146864468,
        "amenity": "kindergarten",
        "name": "Criança Feliz",
        "id": "node/11569168934"
      },
      "geometry": {
        "type": "Point",
        "coordinates": [
          -45.9270321,
          -22.2234677
        ]
      }
    },
    {
      "type": "Feature",
      "id": "node/11575086702",
      "properties": {
        "timestamp": "2024-01-31T22:45:25Z",
        "version": 1,
        "changeset": 146924249,
        "amenity": "kindergarten",
        "name": "Escola Alegria & Cia",
        "id": "node/11575086702"
      },
      "geometry": {
        "type": "Point",
        "coordinates": [
          -45.9306945,
          -22.2240857
        ]
      }
    },
    {
      "type": "Feature",
      "id": "node/11910345030",
      "properties": {
        "timestamp": "2024-05-16T17:06:39Z",
        "version": 1,
        "changeset": 151418646,
        "amenity": "kindergarten",
        "name": "Galileu",
        "id": "node/11910345030"
      },
      "geometry": {
        "type": "Point",
        "coordinates": [
          -45.9216412,
          -22.2201082
        ]
      }
    }
  ]
}
