{
  "type": "FeatureCollection",
  "features": [
    {
      "type": "Feature",
      "id": "node/10908230197",
      "properties": {
        "timestamp": "2023-05-18T13:15:16Z",
        "version": 1,
        "changeset": 136254854,
        "amenity": "veterinary",
        "name": "Laboratório Veterinário HemoLab",
        "id": "node/10908230197"
      },
      "geometry": {
        "type": "Point",
        "coordinates": [
          -45.9460693,
          -22.2135429
        ]
      }
    },
    {
      "type": "Feature",
      "id": "node/11536744858",
      "properties": {
        "timestamp": "2024-01-21T13:00:01Z",
        "version": 1,
        "changeset": 146511767,
        "amenity": "veterinary",
        "name": "Mascote Center",
        "id": "node/11536744858"
      },
      "geometry": {
        "type": "Point",
        "coordinates": [
          -45.9328385,
          -22.2262309
        ]
      }
    },
    {
      "type": "Feature",
      "id": "node/11549436494",
      "properties": {
        "timestamp": "2024-01-25T11:06:40Z",
        "version": 1,
        "changeset": 146668526,
        "amenity": "veterinary",
        "name": "Hospital Veterinário Mundo da Arca de Noé",
        "id": "node/11549436494"
      },
      "geometry": {
        "type": "Point",
        "coordinates": [
          -45.9274521,
          -22.2276249
        ]
      }
    },
    {
      "type": "Feature",
      "id": "node/11569200064",
      "properties": {
        "timestamp": "2024-01-30T13:37:29Z",
        "version": 1,
        "changeset": 146864468,
        "amenity": "veterinary",
        "name": "All Vets Hospital Animal",
        "id": "node/11569200064"
      },
      "geometry": {
        "type": "Point",
        "coordinates": [
          -45.9267554,
          -22.2231448
        ]
      }
    },
    {
      "type": "Feature",
      "id": "node/11569215870",
      "properties": {
        "timestamp": "2024-01-30T13:37:34Z",
        "version": 1,
        "changeset": 146864468,
        "amenity": "veterinary",
        "name": "Quatro Patas",
        "id": "node/11569215870"
      },
      "geometry": {
        "type": "Point",
        "coordinates": [
          -45.9280544,
          -22.2236489
        ]
      }
    },
    {
      "type": "Feature",
      "id": "node/11575079712",
      "properties": {
        "timestamp": "2024-01-31T22:45:25Z",
        "version": 1,
        "changeset": 146924249,
        "amenity": "veterinary",
        "name": "Amicão Petvet",
        "id": "node/11575079712"
      },
      "geometry": {
        "type": "Point",
        "coordinates": [
          -45.9307731,
          -22.224238
        ]
      }
    },
    {
      "type": "Feature",
      "id": "node/11582034360",
      "properties": {
        "timestamp": "2024-02-03T15:24:37Z",
        "version": 1,
        "changeset": 147023929,
        "amenity": "veterinary",
        "name": "Vet Center",
        "id": "node/11582034360"
      },
      "geometry": {
        "type": "Point",
        "coordinates": [
          -45.9325387,
          -22.2267661
        ]
      }
    },
    {
      "type": "Feature",
      "id": "node/11584126176",
      "properties": {
        "timestamp": "2024-02-04T12:27:45Z",
        "version": 1,
        "changeset": 147051918,
        "amenity": "veterinary",
        "name": "Tap Dog",
        "id": "node/11584126176"
      },
      "geometry": {
        "type": "Point",
        "coordinates": [
          -45.936278,
          -22.2229835
        ]
      }
    },
    {
      "type": "Feature",
      "id": "node/11590321717",
      "properties": {
        "timestamp": "2024-02-06T01:16:32Z",
        "version": 1,
        "changeset": 147114709,
        "amenity": "veterinary",
        "name": "Campo & Lavoura",
        "id": "node/11590321717"
      },
      "geometry": {
        "type": "Point",
        "coordinates": [
          -45.9360811,
          -22.2298006
        ]
      }
    }
  ]
}
