{
  "type": "FeatureCollection",
  "features": [
    {
      "type": "Feature",
      "id": "node/9919013687",
      "properties": {
        "timestamp": "2022-07-29T15:03:47Z",
        "version": 2,
        "changeset": 124236080,
        "amenity": "community_centre",
        "community_centre": "parish_hall",
        "name": "Salão Paroquial",
        "id": "node/9919013687"
      },
      "geometry": {
        "type": "Point",
        "coordinates": [
          -52.0835042,
          -27.0523325
        ]
      }
    },
    {
      "type": "Feature",
      "id": "node/9919013691",
      "properties": {
        "timestamp": "2022-07-29T15:03:47Z",
        "version": 2,
        "changeset": 124236080,
        "amenity": "community_centre",
        "community_centre": "community_hall",
        "community_centre:for": "senior",
        "name": "Centro de Convivência do Idoso",
        "id": "node/9919013691"
      },
      "geometry": {
        "type": "Point",
        "coordinates": [
          -52.0836709,
          -27.0520754
        ]
      }
    },
    {
      "type": "Feature",
      "id": "node/9919057534",
      "properties": {
        "timestamp": "2022-07-29T15:03:47Z",
        "version": 2,
        "changeset": 124236080,
        "amenity": "community_centre",
        "name": "Salão Comunitário de Linha Alegre",
        "id": "node/9919057534"
      },
      "geometry": {
        "type": "Point",
        "coordinates": [
          -52.1161793,
          -27.0187571
        ]
      }
    },
    {
      "type": "Feature",
      "id": "node/9919096972",
      "properties": {
        "timestamp": "2022-07-29T15:03:47Z",
        "version": 2,
        "changeset": 124236080,
        "amenity": "community_centre",
        "name": "Salão Comunitário de Linha XV de Novembro",
        "id": "node/9919096972"
      },
      "geometry": {
        "type": "Point",
        "coordinates": [
          -52.034703,
          -27.0893507
        ]
      }
    },
    {
      "type": "Feature",
      "id": "node/9919096998",
      "properties": {
        "timestamp": "2022-07-29T15:03:47Z",
        "version": 2,
        "changeset": 124236080,
        "amenity": "community_centre",
        "name": "Salão Comunitário de Linha Salto Grande",
        "id": "node/9919096998"
      },
      "geometry": {
        "type": "Point",
        "coordinates": [
          -52.0661754,
          -27.0752281
        ]
      }
    },
    {
      "type": "Feature",
      "id": "node/9919096999",
      "properties": {
        "timestamp": "2022-07-29T15:03:47Z",
        "version": 3,
        "changeset": 124236080,
        "amenity": "community_centre",
        "name": "Salão Comunitário de Linha Sanga Martins",
        "id": "node/9919096999"
      },
      "geometry": {
        "type": "Point",
        "coordinates": [
          -52.0342176,
          -27.1281961
        ]
      }
    }
  ]
}
