{
  "type": "FeatureCollection",
  "features": [
    {
      "type": "Feature",
      "id": "node/12036236952",
      "properties": {
        "timestamp": "2024-07-05T16:50:17Z",
        "version": 1,
        "changeset": 153596828,
        "amenity": "bicycle_rental",
        "capacity": "24",
        "name": "NitBike - Estação 9 - Theatro Municipal",
        "network": "NitBike",
        "id": "node/12036236952"
      },
      "geometry": {
        "type": "Point",
        "coordinates": [
          -43.1236643,
          -22.8960054
        ]
      }
    },
    {
      "type": "Feature",
      "id": "node/12036236953",
      "properties": {
        "timestamp": "2024-07-05T16:50:17Z",
        "version": 1,
        "changeset": 153596828,
        "amenity": "bicycle_rental",
        "name": "NitBike - Estação 8 - Praça do Rink",
        "network": "NitBike",
        "id": "node/12036236953"
      },
      "geometry": {
        "type": "Point",
        "coordinates": [
          -43.1216016,
          -22.8956126
        ]
      }
    },
    {
      "type": "Feature",
      "id": "node/12036236954",
      "properties": {
        "timestamp": "2024-07-05T16:50:17Z",
        "version": 1,
        "changeset": 153596828,
        "amenity": "bicycle_rental",
        "capacity": "21",
        "name": "NitBike - Estação 10 - Valonguinho",
        "network": "NitBike",
        "id": "node/12036236954"
      },
      "geometry": {
        "type": "Point",
        "coordinates": [
          -43.1257859,
          -22.8964675
        ]
      }
    },
    {
      "type": "Feature",
      "id": "node/12036236955",
      "properties": {
        "timestamp": "2024-07-05T16:50:17Z",
        "version": 1,
        "changeset": 153596828,
        "amenity": "bicycle_rental",
        "name": "NitBike - Estação 5 - Praça São João",
        "network": "NitBike",
        "id": "node/12036236955"
      },
      "geometry": {
        "type": "Point",
        "coordinates": [
          -43.1220174,
          -22.891197
        ]
      }
    },
    {
      "type": "Feature",
      "id": "node/12036236956",
      "properties": {
        "timestamp": "2024-07-05T16:50:17Z",
        "version": 1,
        "changeset": 153596828,
        "amenity": "bicycle_rental",
        "name": "NitBike - Estação 4 - Terminal João Goulart",
        "network": "NitBike",
        "id": "node/12036236956"
      },
      "geometry": {
        "type": "Point",
        "coordinates": [
          -43.1242946,
          -22.8915355
        ]
      }
    },
    {
      "type": "Feature",
      "id": "node/12036236957",
      "properties": {
        "timestamp": "2024-07-05T16:50:17Z",
        "version": 1,
        "changeset": 153596828,
        "amenity": "bicycle_rental",
        "name": "NitBike - Estação 20 - Visconde do Uruguai",
        "network": "NitBike",
        "id": "node/12036236957"
      },
      "geometry": {
        "type": "Point",
        "coordinates": [
          -43.1227443,
          -22.8881849
        ]
      }
    },
    {
      "type": "Feature",
      "id": "node/12036236958",
      "properties": {
        "timestamp": "2024-07-05T16:50:17Z",
        "version": 1,
        "changeset": 153596828,
        "amenity": "bicycle_rental",
        "name": "NitBike - Estação 7 - Palácio Arariboia",
        "network": "NitBike",
        "id": "node/12036236958"
      },
      "geometry": {
        "type": "Point",
        "coordinates": [
          -43.1215534,
          -22.894298
        ]
      }
    },
    {
      "type": "Feature",
      "id": "node/12036236959",
      "properties": {
        "timestamp": "2024-07-05T16:50:17Z",
        "version": 1,
        "changeset": 153596828,
        "amenity": "bicycle_rental",
        "name": "NitBike - Estação 12 - Nilo Peçanha",
        "network": "NitBike",
        "id": "node/12036236959"
      },
      "geometry": {
        "type": "Point",
        "coordinates": [
          -43.1237604,
          -22.9015161
        ]
      }
    },
    {
      "type": "Feature",
      "id": "node/12036236960",
      "properties": {
        "timestamp": "2024-07-05T16:50:17Z",
        "version": 1,
        "changeset": 153596828,
        "amenity": "bicycle_rental",
        "name": "NitBike - Estação 13 - Praia das Flechas",
        "network": "NitBike",
        "id": "node/12036236960"
      },
      "geometry": {
        "type": "Point",
        "coordinates": [
          -43.1224061,
          -22.9048673
        ]
      }
    },
    {
      "type": "Feature",
      "id": "node/12036236961",
      "properties": {
        "timestamp": "2024-07-05T16:50:17Z",
        "version": 1,
        "changeset": 153596828,
        "amenity": "bicycle_rental",
        "capacity": "12",
        "name": "NitBike - Estação 11 - IEPIC",
        "network": "NitBike",
        "id": "node/12036236961"
      },
      "geometry": {
        "type": "Point",
        "coordinates": [
          -43.1269057,
          -22.8985586
        ]
      }
    },
    {
      "type": "Feature",
      "id": "node/12136597064",
      "properties": {
        "timestamp": "2024-08-25T22:30:28Z",
        "version": 1,
        "changeset": 155757804,
        "amenity": "bicycle_rental",
        "capacity": "10",
        "name": "nitebike",
        "network": "nitebike",
        "id": "node/12136597064"
      },
      "geometry": {
        "type": "Point",
        "coordinates": [
          -43.1309632,
          -22.8991196
        ]
      }
    },
    {
      "type": "Feature",
      "id": "node/12136597065",
      "properties": {
        "timestamp": "2024-08-25T22:30:28Z",
        "version": 1,
        "changeset": 155757804,
        "amenity": "bicycle_rental",
        "capacity": "20",
        "name": "nitebike",
        "id": "node/12136597065"
      },
      "geometry": {
        "type": "Point",
        "coordinates": [
          -43.1301041,
          -22.9038073
        ]
      }
    }
  ]
}
