{
  "type": "FeatureCollection",
  "features": [
    {
      "type": "Feature",
      "id": "node/4413929289",
      "properties": {
        "timestamp": "2023-03-29T15:15:36Z",
        "version": 2,
        "changeset": 134267658,
        "name": "Cachoeira dos 13 ou Cachoeira da Macumba",
        "waterway": "waterfall",
        "id": "node/4413929289"
      },
      "geometry": {
        "type": "Point",
        "coordinates": [
          -43.0665778,
          -22.4315498
        ]
      }
    },
    {
      "type": "Feature",
      "id": "node/4674877524",
      "properties": {
        "timestamp": "2023-03-17T19:38:05Z",
        "version": 3,
        "changeset": 133802200,
        "name": "Cachoeira do Presidente",
        "waterway": "waterfall",
        "id": "node/4674877524"
      },
      "geometry": {
        "type": "Point",
        "coordinates": [
          -43.0742172,
          -22.4706593
        ]
      }
    },
    {
      "type": "Feature",
      "id": "node/4730013490",
      "properties": {
        "timestamp": "2017-03-12T02:21:05Z",
        "version": 1,
        "changeset": 46776273,
        "name": "Cachoeira da Rocinha",
        "name:pt": "Cachoeira da Rocinha",
        "waterway": "waterfall",
        "id": "node/4730013490"
      },
      "geometry": {
        "type": "Point",
        "coordinates": [
          -43.1910775,
          -22.3537316
        ]
      }
    },
    {
      "type": "Feature",
      "id": "node/4730053091",
      "properties": {
        "timestamp": "2017-03-12T03:26:48Z",
        "version": 1,
        "changeset": 46776823,
        "name": "Cachoeira da Ponte Funda",
        "name:pt": "Cachoeira da Ponte Funda",
        "waterway": "waterfall",
        "id": "node/4730053091"
      },
      "geometry": {
        "type": "Point",
        "coordinates": [
          -43.2813833,
          -22.4275764
        ]
      }
    },
    {
      "type": "Feature",
      "id": "node/6453075585",
      "properties": {
        "timestamp": "2021-11-18T00:14:56Z",
        "version": 3,
        "changeset": 113921831,
        "name": "Cachoeira Véu de Noiva",
        "name:en": "Bride's Veil Waterfall",
        "waterway": "waterfall",
        "id": "node/6453075585"
      },
      "geometry": {
        "type": "Point",
        "coordinates": [
          -43.0720442,
          -22.469301
        ]
      }
    },
    {
      "type": "Feature",
      "id": "node/6910638041",
      "properties": {
        "timestamp": "2019-10-23T21:50:15Z",
        "version": 1,
        "changeset": 76125469,
        "name": "Cachoeira da Figueira",
        "waterway": "waterfall",
        "id": "node/6910638041"
      },
      "geometry": {
        "type": "Point",
        "coordinates": [
          -43.1671891,
          -22.5385301
        ]
      }
    },
    {
      "type": "Feature",
      "id": "node/6910638043",
      "properties": {
        "timestamp": "2019-10-23T21:50:15Z",
        "version": 1,
        "changeset": 76125469,
        "name": "Cachoeira das Andorinhas",
        "waterway": "waterfall",
        "id": "node/6910638043"
      },
      "geometry": {
        "type": "Point",
        "coordinates": [
          -43.166899,
          -22.538565
        ]
      }
    },
    {
      "type": "Feature",
      "id": "node/7606979697",
      "properties": {
        "timestamp": "2020-06-09T22:14:00Z",
        "version": 1,
        "changeset": 86428571,
        "waterway": "waterfall",
        "id": "node/7606979697"
      },
      "geometry": {
        "type": "Point",
        "coordinates": [
          -43.2173624,
          -22.374156
        ]
      }
    },
    {
      "type": "Feature",
      "id": "node/10759979047",
      "properties": {
        "timestamp": "2023-03-24T20:35:55Z",
        "version": 1,
        "changeset": 134083800,
        "name": "Cachoeira da Jibóia",
        "waterway": "waterfall",
        "id": "node/10759979047"
      },
      "geometry": {
        "type": "Point",
        "coordinates": [
          -43.0828332,
          -22.469279
        ]
      }
    },
    {
      "type": "Feature",
      "id": "node/10771183392",
      "properties": {
        "timestamp": "2023-03-29T14:54:01Z",
        "version": 1,
        "changeset": 134266792,
        "name": "Cachoeira dos 3 Irmãos",
        "waterway": "waterfall",
        "id": "node/10771183392"
      },
      "geometry": {
        "type": "Point",
        "coordinates": [
          -43.1038632,
          -22.5066716
        ]
      }
    },
    {
      "type": "Feature",
      "id": "node/10771226003",
      "properties": {
        "timestamp": "2023-03-29T15:27:12Z",
        "version": 1,
        "changeset": 134268133,
        "name": "Cachoeira do Pasto",
        "waterway": "waterfall",
        "id": "node/10771226003"
      },
      "geometry": {
        "type": "Point",
        "coordinates": [
          -43.0705517,
          -22.4377963
        ]
      }
    },
    {
      "type": "Feature",
      "id": "node/10771236579",
      "properties": {
        "timestamp": "2023-03-29T15:16:24Z",
        "version": 1,
        "changeset": 134267704,
        "name": "Cachoeira da Jaguatirica",
        "waterway": "waterfall",
        "id": "node/10771236579"
      },
      "geometry": {
        "type": "Point",
        "coordinates": [
          -43.0650341,
          -22.4361975
        ]
      }
    },
    {
      "type": "Feature",
      "id": "node/10903532086",
      "properties": {
        "timestamp": "2023-05-16T21:30:47Z",
        "version": 1,
        "changeset": 136186937,
        "name": "Cachoeira do Degrau",
        "waterway": "waterfall",
        "id": "node/10903532086"
      },
      "geometry": {
        "type": "Point",
        "coordinates": [
          -43.1666639,
          -22.5385768
        ]
      }
    },
    {
      "type": "Feature",
      "id": "node/10903548805",
      "properties": {
        "timestamp": "2023-05-16T21:30:47Z",
        "version": 1,
        "changeset": 136186937,
        "name": "Cachoeira Arco Iris",
        "waterway": "waterfall",
        "id": "node/10903548805"
      },
      "geometry": {
        "type": "Point",
        "coordinates": [
          -43.1659156,
          -22.538424
        ]
      }
    },
    {
      "type": "Feature",
      "id": "node/11105649605",
      "properties": {
        "timestamp": "2023-08-10T18:18:43Z",
        "version": 1,
        "changeset": 139718838,
        "name": "Cachoeira das Andorinhas",
        "waterway": "waterfall",
        "id": "node/11105649605"
      },
      "geometry": {
        "type": "Point",
        "coordinates": [
          -43.0716364,
          -22.4698619
        ]
      }
    }
  ]
}
