{
  "type": "FeatureCollection",
  "features": [
    {
      "type": "Feature",
      "id": "node/4712230801",
      "properties": {
        "timestamp": "2017-03-01T19:50:50Z",
        "version": 1,
        "changeset": 46503158,
        "historic": "monument",
        "name": "Bandeiras",
        "id": "node/4712230801"
      },
      "geometry": {
        "type": "Point",
        "coordinates": [
          -34.8394555,
          -7.8451725
        ]
      }
    },
    {
      "type": "Feature",
      "id": "node/4736153247",
      "properties": {
        "timestamp": "2017-03-15T13:40:57Z",
        "version": 1,
        "changeset": 46869424,
        "historic": "monument",
        "name": "Agamenon Magalhães",
        "id": "node/4736153247"
      },
      "geometry": {
        "type": "Point",
        "coordinates": [
          -34.8797331,
          -7.9406672
        ]
      }
    },
    {
      "type": "Feature",
      "id": "node/4736153248",
      "properties": {
        "timestamp": "2017-03-15T13:40:57Z",
        "version": 1,
        "changeset": 46869424,
        "historic": "monument",
        "name": "Bem vindo a Paulista",
        "id": "node/4736153248"
      },
      "geometry": {
        "type": "Point",
        "coordinates": [
          -34.8795642,
          -7.940553
        ]
      }
    },
    {
      "type": "Feature",
      "id": "node/4736153249",
      "properties": {
        "timestamp": "2020-02-19T11:00:47Z",
        "version": 2,
        "changeset": 81217350,
        "air_conditioning": "yes",
        "amenity": "cinema",
        "historic": "monument",
        "name": "Bíblia;cinesistem paulista",
        "id": "node/4736153249"
      },
      "geometry": {
        "type": "Point",
        "coordinates": [
          -34.8806475,
          -7.9395648
        ]
      }
    },
    {
      "type": "Feature",
      "id": "node/5648259179",
      "properties": {
        "timestamp": "2018-05-28T19:33:58Z",
        "version": 1,
        "changeset": 59349076,
        "historic": "monument",
        "id": "node/5648259179"
      },
      "geometry": {
        "type": "Point",
        "coordinates": [
          -34.877966,
          -7.938431
        ]
      }
    },
    {
      "type": "Feature",
      "id": "node/6399769720",
      "properties": {
        "timestamp": "2019-04-12T02:07:12Z",
        "version": 1,
        "changeset": 69136287,
        "historic": "monument",
        "id": "node/6399769720"
      },
      "geometry": {
        "type": "Point",
        "coordinates": [
          -34.8818996,
          -7.94006
        ]
      }
    },
    {
      "type": "Feature",
      "id": "node/7762451092",
      "properties": {
        "timestamp": "2021-11-07T23:21:41Z",
        "version": 2,
        "changeset": 113499363,
        "historic": "monument",
        "name": "Rotary - Eu Vivo Paulista",
        "id": "node/7762451092"
      },
      "geometry": {
        "type": "Point",
        "coordinates": [
          -34.8319303,
          -7.8794471
        ]
      }
    }
  ]
}
