{
  "type": "FeatureCollection",
  "features": [
    {
      "type": "Feature",
      "id": "node/4090773232",
      "properties": {
        "timestamp": "2024-08-21T01:14:28Z",
        "version": 2,
        "changeset": 155534220,
        "name": "Cachoeira do Palanque",
        "waterway": "waterfall",
        "id": "node/4090773232"
      },
      "geometry": {
        "type": "Point",
        "coordinates": [
          -48.8420894,
          -28.1227878
        ]
      }
    },
    {
      "type": "Feature",
      "id": "node/4090773239",
      "properties": {
        "timestamp": "2024-08-21T01:15:08Z",
        "version": 4,
        "changeset": 155534228,
        "name": "Cachoeira do Abismo",
        "waterway": "waterfall",
        "id": "node/4090773239"
      },
      "geometry": {
        "type": "Point",
        "coordinates": [
          -48.8438439,
          -28.1229449
        ]
      }
    },
    {
      "type": "Feature",
      "id": "node/4090773413",
      "properties": {
        "timestamp": "2024-08-21T01:08:23Z",
        "version": 2,
        "changeset": 155534151,
        "name": "Cachoeira da Sombra",
        "waterway": "waterfall",
        "id": "node/4090773413"
      },
      "geometry": {
        "type": "Point",
        "coordinates": [
          -48.837288,
          -28.1247944
        ]
      }
    },
    {
      "type": "Feature",
      "id": "node/4090773422",
      "properties": {
        "timestamp": "2024-08-21T01:04:41Z",
        "version": 3,
        "changeset": 155534121,
        "name": "Cachoeira do Rio Forquilha",
        "waterway": "waterfall",
        "id": "node/4090773422"
      },
      "geometry": {
        "type": "Point",
        "coordinates": [
          -48.8359852,
          -28.1248956
        ]
      }
    },
    {
      "type": "Feature",
      "id": "node/4326227201",
      "properties": {
        "timestamp": "2021-08-12T07:22:33Z",
        "version": 3,
        "changeset": 109553709,
        "name": "Cachoeira Salto Grande",
        "waterway": "waterfall",
        "id": "node/4326227201"
      },
      "geometry": {
        "type": "Point",
        "coordinates": [
          -48.8367906,
          -28.2545995
        ]
      }
    },
    {
      "type": "Feature",
      "id": "node/8181431479",
      "properties": {
        "timestamp": "2024-10-28T13:33:38Z",
        "version": 4,
        "changeset": 158456493,
        "name": "Cachoeira Florestal",
        "waterway": "waterfall",
        "id": "node/8181431479"
      },
      "geometry": {
        "type": "Point",
        "coordinates": [
          -48.8350738,
          -28.1061829
        ]
      }
    },
    {
      "type": "Feature",
      "id": "node/8181431480",
      "properties": {
        "timestamp": "2024-10-28T12:35:13Z",
        "version": 3,
        "changeset": 158453926,
        "name": "Cachoeira da Viúva",
        "waterway": "waterfall",
        "id": "node/8181431480"
      },
      "geometry": {
        "type": "Point",
        "coordinates": [
          -48.8413529,
          -28.1006136
        ]
      }
    },
    {
      "type": "Feature",
      "id": "node/8181431481",
      "properties": {
        "timestamp": "2021-08-13T06:51:48Z",
        "version": 2,
        "changeset": 109608654,
        "waterway": "waterfall",
        "id": "node/8181431481"
      },
      "geometry": {
        "type": "Point",
        "coordinates": [
          -48.8458957,
          -28.1731286
        ]
      }
    },
    {
      "type": "Feature",
      "id": "node/8181431482",
      "properties": {
        "timestamp": "2020-12-01T00:44:36Z",
        "version": 1,
        "changeset": 95074040,
        "waterway": "waterfall",
        "id": "node/8181431482"
      },
      "geometry": {
        "type": "Point",
        "coordinates": [
          -48.853181,
          -28.1478335
        ]
      }
    },
    {
      "type": "Feature",
      "id": "node/8181431483",
      "properties": {
        "timestamp": "2021-08-13T06:51:48Z",
        "version": 2,
        "changeset": 109608654,
        "waterway": "waterfall",
        "id": "node/8181431483"
      },
      "geometry": {
        "type": "Point",
        "coordinates": [
          -48.857571,
          -28.1489441
        ]
      }
    },
    {
      "type": "Feature",
      "id": "node/8181431484",
      "properties": {
        "timestamp": "2021-08-13T06:51:48Z",
        "version": 2,
        "changeset": 109608654,
        "waterway": "waterfall",
        "id": "node/8181431484"
      },
      "geometry": {
        "type": "Point",
        "coordinates": [
          -48.836894,
          -28.1518113
        ]
      }
    },
    {
      "type": "Feature",
      "id": "node/8181431485",
      "properties": {
        "timestamp": "2021-08-13T06:51:48Z",
        "version": 2,
        "changeset": 109608654,
        "waterway": "waterfall",
        "id": "node/8181431485"
      },
      "geometry": {
        "type": "Point",
        "coordinates": [
          -48.8426804,
          -28.1510863
        ]
      }
    },
    {
      "type": "Feature",
      "id": "node/9003122568",
      "properties": {
        "timestamp": "2024-10-28T12:37:12Z",
        "version": 2,
        "changeset": 158454004,
        "name": "Poço da Kéia",
        "waterway": "waterfall",
        "id": "node/9003122568"
      },
      "geometry": {
        "type": "Point",
        "coordinates": [
          -48.8379409,
          -28.1032066
        ]
      }
    },
    {
      "type": "Feature",
      "id": "node/12123236526",
      "properties": {
        "timestamp": "2024-08-21T01:19:05Z",
        "version": 1,
        "changeset": 155534277,
        "name": "Cachoeira do Sedento",
        "waterway": "waterfall",
        "id": "node/12123236526"
      },
      "geometry": {
        "type": "Point",
        "coordinates": [
          -48.8474028,
          -28.1217654
        ]
      }
    },
    {
      "type": "Feature",
      "id": "node/12123263032",
      "properties": {
        "timestamp": "2024-08-21T01:10:05Z",
        "version": 1,
        "changeset": 155534176,
        "name": "Cachoeira do Jorro",
        "waterway": "waterfall",
        "id": "node/12123263032"
      },
      "geometry": {
        "type": "Point",
        "coordinates": [
          -48.8375918,
          -28.1246113
        ]
      }
    },
    {
      "type": "Feature",
      "id": "node/12123263033",
      "properties": {
        "timestamp": "2024-08-21T01:16:08Z",
        "version": 1,
        "changeset": 155534249,
        "name": "Cachoeira do Labirinto",
        "waterway": "waterfall",
        "id": "node/12123263033"
      },
      "geometry": {
        "type": "Point",
        "coordinates": [
          -48.84304,
          -28.1228781
        ]
      }
    },
    {
      "type": "Feature",
      "id": "node/12123285954",
      "properties": {
        "timestamp": "2024-08-21T01:11:21Z",
        "version": 1,
        "changeset": 155534188,
        "name": "Cachoeira da Baixada",
        "waterway": "waterfall",
        "id": "node/12123285954"
      },
      "geometry": {
        "type": "Point",
        "coordinates": [
          -48.8379861,
          -28.1243736
        ]
      }
    },
    {
      "type": "Feature",
      "id": "node/12123296127",
      "properties": {
        "timestamp": "2024-08-21T01:12:15Z",
        "version": 1,
        "changeset": 155534195,
        "name": "Cachoeira do Refresco",
        "waterway": "waterfall",
        "id": "node/12123296127"
      },
      "geometry": {
        "type": "Point",
        "coordinates": [
          -48.8383826,
          -28.1241777
        ]
      }
    },
    {
      "type": "Feature",
      "id": "node/12123297366",
      "properties": {
        "timestamp": "2024-08-21T01:17:32Z",
        "version": 1,
        "changeset": 155534263,
        "name": "Cachoeira da Bancada",
        "waterway": "waterfall",
        "id": "node/12123297366"
      },
      "geometry": {
        "type": "Point",
        "coordinates": [
          -48.8445325,
          -28.1218216
        ]
      }
    },
    {
      "type": "Feature",
      "id": "node/12293860310",
      "properties": {
        "timestamp": "2024-10-28T12:38:12Z",
        "version": 1,
        "changeset": 158454034,
        "name": "Cachoeira da Flor Vermelha",
        "waterway": "waterfall",
        "id": "node/12293860310"
      },
      "geometry": {
        "type": "Point",
        "coordinates": [
          -48.8356267,
          -28.1058074
        ]
      }
    }
  ]
}
