{
  "type": "FeatureCollection",
  "features": [
    {
      "type": "Feature",
      "id": "node/4953738565",
      "properties": {
        "timestamp": "2017-07-05T22:46:48Z",
        "version": 1,
        "changeset": 50070404,
        "name": "Hotel Pousada",
        "tourism": "hotel",
        "id": "node/4953738565"
      },
      "geometry": {
        "type": "Point",
        "coordinates": [
          -41.411159,
          -2.9106505
        ]
      }
    },
    {
      "type": "Feature",
      "id": "node/6139289759",
      "properties": {
        "timestamp": "2018-12-17T18:56:05Z",
        "version": 2,
        "changeset": 65559633,
        "name": "La Cozinha Bungalow",
        "tourism": "hotel",
        "id": "node/6139289759"
      },
      "geometry": {
        "type": "Point",
        "coordinates": [
          -41.4063474,
          -2.9089846
        ]
      }
    },
    {
      "type": "Feature",
      "id": "node/6143251055",
      "properties": {
        "timestamp": "2021-01-12T14:02:20Z",
        "version": 2,
        "changeset": 97378941,
        "name": "Pousada Manatí",
        "phone": "+55 86 3369 8100",
        "tourism": "hotel",
        "id": "node/6143251055"
      },
      "geometry": {
        "type": "Point",
        "coordinates": [
          -41.407065,
          -2.9077453
        ]
      }
    },
    {
      "type": "Feature",
      "id": "node/6143251056",
      "properties": {
        "timestamp": "2018-12-17T18:56:03Z",
        "version": 1,
        "changeset": 65559633,
        "name": "Pousada Paraiso da Barra",
        "tourism": "hotel",
        "id": "node/6143251056"
      },
      "geometry": {
        "type": "Point",
        "coordinates": [
          -41.4070167,
          -2.9079864
        ]
      }
    },
    {
      "type": "Feature",
      "id": "node/6143251057",
      "properties": {
        "timestamp": "2018-12-17T18:56:04Z",
        "version": 1,
        "changeset": 65559633,
        "name": "Pousada Titas",
        "tourism": "hotel",
        "id": "node/6143251057"
      },
      "geometry": {
        "type": "Point",
        "coordinates": [
          -41.4088036,
          -2.909588
        ]
      }
    },
    {
      "type": "Feature",
      "id": "node/7108029382",
      "properties": {
        "timestamp": "2020-01-04T21:34:10Z",
        "version": 1,
        "changeset": 79199934,
        "name": "Pousada Vento Terral",
        "tourism": "hotel",
        "id": "node/7108029382"
      },
      "geometry": {
        "type": "Point",
        "coordinates": [
          -41.4086223,
          -2.9090791
        ]
      }
    },
    {
      "type": "Feature",
      "id": "node/7108032222",
      "properties": {
        "timestamp": "2020-01-04T21:35:45Z",
        "version": 1,
        "changeset": 79199978,
        "name": "Pousada Delicia do Sono",
        "tourism": "hotel",
        "id": "node/7108032222"
      },
      "geometry": {
        "type": "Point",
        "coordinates": [
          -41.4029211,
          -2.9128319
        ]
      }
    },
    {
      "type": "Feature",
      "id": "node/7108047334",
      "properties": {
        "timestamp": "2020-01-04T21:34:24Z",
        "version": 1,
        "changeset": 79199942,
        "name": "Pousada Torre de Chocolate",
        "tourism": "hotel",
        "id": "node/7108047334"
      },
      "geometry": {
        "type": "Point",
        "coordinates": [
          -41.4061689,
          -2.9084215
        ]
      }
    },
    {
      "type": "Feature",
      "id": "node/7108054292",
      "properties": {
        "timestamp": "2020-01-04T21:34:54Z",
        "version": 1,
        "changeset": 79199958,
        "name": "Pousada da Silene",
        "tourism": "hotel",
        "id": "node/7108054292"
      },
      "geometry": {
        "type": "Point",
        "coordinates": [
          -41.4038529,
          -2.9119251
        ]
      }
    },
    {
      "type": "Feature",
      "id": "node/7108054745",
      "properties": {
        "timestamp": "2020-01-04T21:35:36Z",
        "version": 1,
        "changeset": 79199975,
        "name": "Pousada Juventus",
        "tourism": "hotel",
        "id": "node/7108054745"
      },
      "geometry": {
        "type": "Point",
        "coordinates": [
          -41.4038832,
          -2.9120678
        ]
      }
    },
    {
      "type": "Feature",
      "id": "node/7108054835",
      "properties": {
        "timestamp": "2020-01-04T21:33:50Z",
        "version": 1,
        "changeset": 79199923,
        "name": "Pousada BGK",
        "tourism": "hotel",
        "id": "node/7108054835"
      },
      "geometry": {
        "type": "Point",
        "coordinates": [
          -41.4089132,
          -2.9092372
        ]
      }
    },
    {
      "type": "Feature",
      "id": "node/7108056124",
      "properties": {
        "timestamp": "2020-01-04T21:34:37Z",
        "version": 1,
        "changeset": 79199948,
        "name": "Bangalo da Barra",
        "tourism": "hotel",
        "id": "node/7108056124"
      },
      "geometry": {
        "type": "Point",
        "coordinates": [
          -41.4063934,
          -2.9099689
        ]
      }
    },
    {
      "type": "Feature",
      "id": "node/7108064353",
      "properties": {
        "timestamp": "2020-01-04T21:36:11Z",
        "version": 1,
        "changeset": 79199991,
        "name": "Pousada Kite Life",
        "tourism": "hotel",
        "id": "node/7108064353"
      },
      "geometry": {
        "type": "Point",
        "coordinates": [
          -41.4010228,
          -2.9126148
        ]
      }
    },
    {
      "type": "Feature",
      "id": "node/7108190385",
      "properties": {
        "timestamp": "2020-01-05T01:19:50Z",
        "version": 2,
        "changeset": 79203236,
        "name": "Pousada da Mamãe",
        "tourism": "hotel",
        "id": "node/7108190385"
      },
      "geometry": {
        "type": "Point",
        "coordinates": [
          -41.4112618,
          -2.9145711
        ]
      }
    },
    {
      "type": "Feature",
      "id": "node/7110955417",
      "properties": {
        "timestamp": "2020-01-05T23:08:41Z",
        "version": 1,
        "changeset": 79225550,
        "name": "Espaço Zen",
        "tourism": "hotel",
        "id": "node/7110955417"
      },
      "geometry": {
        "type": "Point",
        "coordinates": [
          -41.4074026,
          -2.9091884
        ]
      }
    },
    {
      "type": "Feature",
      "id": "node/7110969003",
      "properties": {
        "timestamp": "2020-01-05T23:09:22Z",
        "version": 1,
        "changeset": 79225561,
        "name": "Pousada e Restaurante Monteiro",
        "tourism": "hotel",
        "id": "node/7110969003"
      },
      "geometry": {
        "type": "Point",
        "coordinates": [
          -41.4107646,
          -2.9115604
        ]
      }
    },
    {
      "type": "Feature",
      "id": "node/8265159437",
      "properties": {
        "timestamp": "2020-12-27T21:42:24Z",
        "version": 2,
        "changeset": 96499629,
        "addr:city": "Cajueiro da Praia",
        "addr:housenumber": "300",
        "addr:postcode": "64222-000",
        "addr:street": "R. das Flores",
        "addr:suburb": "Urbano",
        "internet_access": "yes",
        "internet_access:fee": "no",
        "name": "Mero Hotel Boutique",
        "tourism": "hotel",
        "id": "node/8265159437"
      },
      "geometry": {
        "type": "Point",
        "coordinates": [
          -41.413672,
          -2.9112313
        ]
      }
    },
    {
      "type": "Feature",
      "id": "node/10264986309",
      "properties": {
        "timestamp": "2022-12-16T09:16:58Z",
        "version": 2,
        "changeset": 130146596,
        "name": "Casa Camarupin",
        "name:en": "Casa Camurupin",
        "name:pt": "Casa Camurupim",
        "tourism": "hotel",
        "id": "node/10264986309"
      },
      "geometry": {
        "type": "Point",
        "coordinates": [
          -41.4135621,
          -2.9104722
        ]
      }
    },
    {
      "type": "Feature",
      "id": "node/10273443181",
      "properties": {
        "timestamp": "2022-12-19T14:01:26Z",
        "version": 1,
        "changeset": 130250802,
        "name": "Pousada Ventos do Norte Barra Grande",
        "tourism": "hotel",
        "id": "node/10273443181"
      },
      "geometry": {
        "type": "Point",
        "coordinates": [
          -41.4098111,
          -2.9143752
        ]
      }
    }
  ]
}
