{
  "type": "FeatureCollection",
  "features": [
    {
      "type": "Feature",
      "id": "node/5714404097",
      "properties": {
        "timestamp": "2019-09-08T13:32:23Z",
        "version": 2,
        "changeset": 74226817,
        "amenity": "veterinary",
        "name": "Hospital Veterinário Dra. Renata Saccaro",
        "website": "http://hospitalveterinariors.com.br/",
        "id": "node/5714404097"
      },
      "geometry": {
        "type": "Point",
        "coordinates": [
          -51.2165062,
          -29.1796985
        ]
      }
    },
    {
      "type": "Feature",
      "id": "node/8616047998",
      "properties": {
        "timestamp": "2021-04-10T22:18:23Z",
        "version": 1,
        "changeset": 102717317,
        "amenity": "veterinary",
        "name": "Clínica Veterinária São João",
        "id": "node/8616047998"
      },
      "geometry": {
        "type": "Point",
        "coordinates": [
          -51.179442,
          -29.161582
        ]
      }
    },
    {
      "type": "Feature",
      "id": "node/8729454101",
      "properties": {
        "timestamp": "2021-05-13T21:15:47Z",
        "version": 1,
        "changeset": 104659482,
        "amenity": "veterinary",
        "name": "Clínica Veterinária Parque",
        "id": "node/8729454101"
      },
      "geometry": {
        "type": "Point",
        "coordinates": [
          -51.1823632,
          -29.171294
        ]
      }
    },
    {
      "type": "Feature",
      "id": "node/10085858753",
      "properties": {
        "timestamp": "2022-10-08T23:19:23Z",
        "version": 1,
        "changeset": 127224994,
        "amenity": "veterinary",
        "name": "Veterinária São Leopoldo",
        "id": "node/10085858753"
      },
      "geometry": {
        "type": "Point",
        "coordinates": [
          -51.1853788,
          -29.1829649
        ]
      }
    },
    {
      "type": "Feature",
      "id": "node/11087785533",
      "properties": {
        "timestamp": "2023-08-04T01:09:00Z",
        "version": 1,
        "changeset": 139417543,
        "amenity": "veterinary",
        "name": "Pegadas",
        "id": "node/11087785533"
      },
      "geometry": {
        "type": "Point",
        "coordinates": [
          -51.1877363,
          -29.1742442
        ]
      }
    },
    {
      "type": "Feature",
      "id": "node/11512425425",
      "properties": {
        "timestamp": "2024-01-12T23:41:41Z",
        "version": 1,
        "changeset": 146199214,
        "amenity": "veterinary",
        "name": "Ducão Veterinária",
        "id": "node/11512425425"
      },
      "geometry": {
        "type": "Point",
        "coordinates": [
          -51.1809672,
          -29.1763261
        ]
      }
    }
  ]
}
