{
  "type": "FeatureCollection",
  "features": [
    {
      "type": "Feature",
      "id": "node/2037114754",
      "properties": {
        "timestamp": "2015-08-25T13:54:13Z",
        "version": 2,
        "changeset": 33571910,
        "name": "Salto Guassupi",
        "waterway": "waterfall",
        "id": "node/2037114754"
      },
      "geometry": {
        "type": "Point",
        "coordinates": [
          -54.0132868,
          -29.4221284
        ]
      }
    },
    {
      "type": "Feature",
      "id": "node/4526753641",
      "properties": {
        "timestamp": "2016-11-30T02:53:56Z",
        "version": 2,
        "changeset": 44049464,
        "waterway": "waterfall",
        "id": "node/4526753641"
      },
      "geometry": {
        "type": "Point",
        "coordinates": [
          -53.877147,
          -29.5301333
        ]
      }
    },
    {
      "type": "Feature",
      "id": "node/4526753642",
      "properties": {
        "timestamp": "2016-11-28T17:58:30Z",
        "version": 1,
        "changeset": 44013329,
        "name": "Cachoeira do Leão",
        "waterway": "waterfall",
        "id": "node/4526753642"
      },
      "geometry": {
        "type": "Point",
        "coordinates": [
          -53.8700488,
          -29.5326436
        ]
      }
    },
    {
      "type": "Feature",
      "id": "node/4526753643",
      "properties": {
        "timestamp": "2017-10-02T15:52:24Z",
        "version": 2,
        "changeset": 52568186,
        "name": "Cachoeira do Poço",
        "waterway": "waterfall",
        "id": "node/4526753643"
      },
      "geometry": {
        "type": "Point",
        "coordinates": [
          -53.8300381,
          -29.5377701
        ]
      }
    },
    {
      "type": "Feature",
      "id": "node/4526753644",
      "properties": {
        "timestamp": "2017-10-02T15:52:24Z",
        "version": 2,
        "changeset": 52568186,
        "name": "Cachoeira dos Rosa",
        "waterway": "waterfall",
        "id": "node/4526753644"
      },
      "geometry": {
        "type": "Point",
        "coordinates": [
          -53.8313197,
          -29.5331425
        ]
      }
    },
    {
      "type": "Feature",
      "id": "node/4526753645",
      "properties": {
        "timestamp": "2017-10-02T15:52:24Z",
        "version": 2,
        "changeset": 52568186,
        "name": "Jango Rosa",
        "waterway": "waterfall",
        "id": "node/4526753645"
      },
      "geometry": {
        "type": "Point",
        "coordinates": [
          -53.8065147,
          -29.5271466
        ]
      }
    },
    {
      "type": "Feature",
      "id": "node/4526753646",
      "properties": {
        "timestamp": "2016-11-30T02:53:56Z",
        "version": 2,
        "changeset": 44049464,
        "name": "Cascata do Moinho",
        "waterway": "waterfall",
        "id": "node/4526753646"
      },
      "geometry": {
        "type": "Point",
        "coordinates": [
          -53.8738212,
          -29.5257322
        ]
      }
    },
    {
      "type": "Feature",
      "id": "node/4526753647",
      "properties": {
        "timestamp": "2016-11-28T17:58:30Z",
        "version": 1,
        "changeset": 44013329,
        "name": "Salto Lavapé",
        "waterway": "waterfall",
        "id": "node/4526753647"
      },
      "geometry": {
        "type": "Point",
        "coordinates": [
          -53.8512393,
          -29.5470497
        ]
      }
    },
    {
      "type": "Feature",
      "id": "node/4529445800",
      "properties": {
        "timestamp": "2019-08-23T20:35:00Z",
        "version": 2,
        "changeset": 73683201,
        "waterway": "waterfall",
        "id": "node/4529445800"
      },
      "geometry": {
        "type": "Point",
        "coordinates": [
          -53.899739,
          -29.5288669
        ]
      }
    },
    {
      "type": "Feature",
      "id": "node/5143390474",
      "properties": {
        "timestamp": "2017-10-02T15:52:15Z",
        "version": 1,
        "changeset": 52568186,
        "waterway": "waterfall",
        "id": "node/5143390474"
      },
      "geometry": {
        "type": "Point",
        "coordinates": [
          -53.8280189,
          -29.5503226
        ]
      }
    }
  ]
}
