{
  "type": "FeatureCollection",
  "features": [
    {
      "type": "Feature",
      "id": "node/5375604332",
      "properties": {
        "timestamp": "2018-01-31T15:06:52Z",
        "version": 1,
        "changeset": 55936201,
        "amenity": "pharmacy",
        "healthcare": "pharmacy",
        "name": "Saúde vital",
        "id": "node/5375604332"
      },
      "geometry": {
        "type": "Point",
        "coordinates": [
          -46.4605649,
          -4.3154749
        ]
      }
    },
    {
      "type": "Feature",
      "id": "node/5375604333",
      "properties": {
        "timestamp": "2022-07-02T17:31:44Z",
        "version": 3,
        "changeset": 123127851,
        "amenity": "pharmacy",
        "healthcare": "pharmacy",
        "name": "Farmácia Allax",
        "id": "node/5375604333"
      },
      "geometry": {
        "type": "Point",
        "coordinates": [
          -46.4607098,
          -4.3154321
        ]
      }
    },
    {
      "type": "Feature",
      "id": "node/5534795859",
      "properties": {
        "timestamp": "2018-04-06T22:47:15Z",
        "version": 1,
        "changeset": 57880076,
        "amenity": "pharmacy",
        "dispensing": "yes",
        "healthcare": "pharmacy",
        "id": "node/5534795859"
      },
      "geometry": {
        "type": "Point",
        "coordinates": [
          -46.4606117,
          -4.3170817
        ]
      }
    },
    {
      "type": "Feature",
      "id": "node/5537799219",
      "properties": {
        "timestamp": "2022-07-02T17:31:44Z",
        "version": 2,
        "changeset": 123127851,
        "amenity": "pharmacy",
        "dispensing": "yes",
        "healthcare": "pharmacy",
        "name": "Farmácia Heron",
        "id": "node/5537799219"
      },
      "geometry": {
        "type": "Point",
        "coordinates": [
          -46.4487313,
          -4.3275992
        ]
      }
    },
    {
      "type": "Feature",
      "id": "node/5543423317",
      "properties": {
        "timestamp": "2022-07-02T17:31:44Z",
        "version": 2,
        "changeset": 123127851,
        "amenity": "pharmacy",
        "dispensing": "yes",
        "healthcare": "pharmacy",
        "name": "Farmacia Aguiar",
        "id": "node/5543423317"
      },
      "geometry": {
        "type": "Point",
        "coordinates": [
          -46.4537042,
          -4.3212505
        ]
      }
    },
    {
      "type": "Feature",
      "id": "node/5546079014",
      "properties": {
        "timestamp": "2018-04-11T18:27:51Z",
        "version": 1,
        "changeset": 58013762,
        "amenity": "pharmacy",
        "dispensing": "yes",
        "healthcare": "pharmacy",
        "id": "node/5546079014"
      },
      "geometry": {
        "type": "Point",
        "coordinates": [
          -46.4535565,
          -4.3237209
        ]
      }
    },
    {
      "type": "Feature",
      "id": "node/5548674411",
      "properties": {
        "timestamp": "2018-04-12T18:49:05Z",
        "version": 1,
        "changeset": 58044565,
        "amenity": "pharmacy",
        "dispensing": "yes",
        "healthcare": "pharmacy",
        "id": "node/5548674411"
      },
      "geometry": {
        "type": "Point",
        "coordinates": [
          -46.4600494,
          -4.3172071
        ]
      }
    },
    {
      "type": "Feature",
      "id": "node/5784706074",
      "properties": {
        "timestamp": "2018-07-25T17:12:35Z",
        "version": 1,
        "changeset": 61062881,
        "amenity": "pharmacy",
        "dispensing": "yes",
        "healthcare": "pharmacy",
        "name": "Drograria Alves",
        "id": "node/5784706074"
      },
      "geometry": {
        "type": "Point",
        "coordinates": [
          -46.4628691,
          -4.3152137
        ]
      }
    }
  ]
}
