{
  "type": "FeatureCollection",
  "features": [
    {
      "type": "Feature",
      "id": "node/2669485358",
      "properties": {
        "timestamp": "2020-03-06T16:29:31Z",
        "version": 5,
        "changeset": 81876813,
        "height": "20",
        "name": "Cascata do Ouro",
        "waterway": "waterfall",
        "id": "node/2669485358"
      },
      "geometry": {
        "type": "Point",
        "coordinates": [
          -49.1118111,
          -27.0100243
        ]
      }
    },
    {
      "type": "Feature",
      "id": "node/2669499468",
      "properties": {
        "timestamp": "2020-03-06T16:29:31Z",
        "version": 4,
        "changeset": 81876813,
        "name": "Cascata Ferdinand Schadrack",
        "waterway": "waterfall",
        "id": "node/2669499468"
      },
      "geometry": {
        "type": "Point",
        "coordinates": [
          -49.1172436,
          -27.0063592
        ]
      }
    },
    {
      "type": "Feature",
      "id": "node/2669499469",
      "properties": {
        "timestamp": "2020-03-06T16:29:31Z",
        "version": 4,
        "changeset": 81876813,
        "name": "Cascata Udo Schadrack",
        "waterway": "waterfall",
        "id": "node/2669499469"
      },
      "geometry": {
        "type": "Point",
        "coordinates": [
          -49.1160262,
          -27.006404
        ]
      }
    },
    {
      "type": "Feature",
      "id": "node/2740708555",
      "properties": {
        "timestamp": "2022-11-08T18:37:03Z",
        "version": 3,
        "changeset": 128653300,
        "height": "3",
        "name": "Cascatinha da Frida",
        "waterway": "waterfall",
        "id": "node/2740708555"
      },
      "geometry": {
        "type": "Point",
        "coordinates": [
          -49.040268,
          -26.7769111
        ]
      }
    },
    {
      "type": "Feature",
      "id": "node/3692435080",
      "properties": {
        "timestamp": "2022-11-08T18:37:03Z",
        "version": 2,
        "changeset": 128653300,
        "height": "5",
        "name": "Cascatinha do Fritz",
        "waterway": "waterfall",
        "id": "node/3692435080"
      },
      "geometry": {
        "type": "Point",
        "coordinates": [
          -49.0395659,
          -26.7766815
        ]
      }
    },
    {
      "type": "Feature",
      "id": "node/5640581908",
      "properties": {
        "timestamp": "2018-05-24T21:41:59Z",
        "version": 1,
        "changeset": 59253971,
        "fixme": "corrigir localização",
        "name": "Cachoeira do Ribeirão Saxônia",
        "waterway": "waterfall",
        "id": "node/5640581908"
      },
      "geometry": {
        "type": "Point",
        "coordinates": [
          -49.0651989,
          -26.736877
        ]
      }
    },
    {
      "type": "Feature",
      "id": "node/6900281798",
      "properties": {
        "timestamp": "2021-03-30T20:24:08Z",
        "version": 2,
        "changeset": 102007848,
        "tourism": "attraction",
        "waterway": "waterfall",
        "id": "node/6900281798"
      },
      "geometry": {
        "type": "Point",
        "coordinates": [
          -49.052319,
          -26.6530948
        ]
      }
    },
    {
      "type": "Feature",
      "id": "node/7846572618",
      "properties": {
        "timestamp": "2020-08-26T13:25:19Z",
        "version": 1,
        "changeset": 89975172,
        "waterway": "waterfall",
        "id": "node/7846572618"
      },
      "geometry": {
        "type": "Point",
        "coordinates": [
          -49.0996009,
          -26.9321443
        ]
      }
    },
    {
      "type": "Feature",
      "id": "node/7846572708",
      "properties": {
        "timestamp": "2020-08-26T13:25:19Z",
        "version": 1,
        "changeset": 89975172,
        "waterway": "waterfall",
        "id": "node/7846572708"
      },
      "geometry": {
        "type": "Point",
        "coordinates": [
          -49.1001078,
          -26.9344289
        ]
      }
    }
  ]
}
