{
  "type": "FeatureCollection",
  "features": [
    {
      "type": "Feature",
      "id": "node/3789073060",
      "properties": {
        "timestamp": "2023-05-12T21:10:19Z",
        "version": 3,
        "changeset": 136035205,
        "name": "Poço da Pedra Gigante",
        "waterway": "dam",
        "id": "node/3789073060"
      },
      "geometry": {
        "type": "Point",
        "coordinates": [
          -43.4935486,
          -22.9140732
        ]
      }
    },
    {
      "type": "Feature",
      "id": "node/5133734330",
      "properties": {
        "timestamp": "2023-05-12T21:10:19Z",
        "version": 3,
        "changeset": 136035205,
        "name": "Tanque ou Lagoa das Pacas",
        "waterway": "dam",
        "id": "node/5133734330"
      },
      "geometry": {
        "type": "Point",
        "coordinates": [
          -43.4910759,
          -22.9186475
        ]
      }
    },
    {
      "type": "Feature",
      "id": "node/5233617004",
      "properties": {
        "timestamp": "2019-02-13T19:01:47Z",
        "version": 2,
        "changeset": 67172978,
        "name": "Represa CEDAE nº 9",
        "waterway": "dam",
        "id": "node/5233617004"
      },
      "geometry": {
        "type": "Point",
        "coordinates": [
          -43.2642924,
          -22.9773156
        ]
      }
    },
    {
      "type": "Feature",
      "id": "node/5233617005",
      "properties": {
        "timestamp": "2017-11-16T21:54:00Z",
        "version": 1,
        "changeset": 53856714,
        "name": "Represa da CEDAE nº 8",
        "waterway": "dam",
        "id": "node/5233617005"
      },
      "geometry": {
        "type": "Point",
        "coordinates": [
          -43.2616656,
          -22.976217
        ]
      }
    },
    {
      "type": "Feature",
      "id": "node/5233617006",
      "properties": {
        "timestamp": "2017-11-16T21:54:00Z",
        "version": 1,
        "changeset": 53856714,
        "name": "Represa da CEDAE n.º 7",
        "waterway": "dam",
        "id": "node/5233617006"
      },
      "geometry": {
        "type": "Point",
        "coordinates": [
          -43.2624256,
          -22.9729234
        ]
      }
    },
    {
      "type": "Feature",
      "id": "node/5233617007",
      "properties": {
        "timestamp": "2017-11-16T21:54:00Z",
        "version": 1,
        "changeset": 53856714,
        "name": "Represa da CEDAE n.º 6",
        "waterway": "dam",
        "id": "node/5233617007"
      },
      "geometry": {
        "type": "Point",
        "coordinates": [
          -43.2624104,
          -22.9722631
        ]
      }
    },
    {
      "type": "Feature",
      "id": "node/5235222003",
      "properties": {
        "timestamp": "2017-11-17T18:32:30Z",
        "version": 1,
        "changeset": 53882655,
        "name": "Represa n.º 5",
        "waterway": "dam",
        "id": "node/5235222003"
      },
      "geometry": {
        "type": "Point",
        "coordinates": [
          -43.2631107,
          -22.9708131
        ]
      }
    },
    {
      "type": "Feature",
      "id": "node/5235222004",
      "properties": {
        "timestamp": "2017-11-17T18:32:30Z",
        "version": 1,
        "changeset": 53882655,
        "name": "Represa n.º 4",
        "waterway": "dam",
        "id": "node/5235222004"
      },
      "geometry": {
        "type": "Point",
        "coordinates": [
          -43.2644186,
          -22.9707955
        ]
      }
    },
    {
      "type": "Feature",
      "id": "node/5235222005",
      "properties": {
        "timestamp": "2017-11-17T18:32:30Z",
        "version": 1,
        "changeset": 53882655,
        "name": "Represa n.º 2",
        "waterway": "dam",
        "id": "node/5235222005"
      },
      "geometry": {
        "type": "Point",
        "coordinates": [
          -43.2656229,
          -22.9710163
        ]
      }
    },
    {
      "type": "Feature",
      "id": "node/5235222006",
      "properties": {
        "timestamp": "2017-11-17T18:32:30Z",
        "version": 1,
        "changeset": 53882655,
        "name": "Represa n.º 1",
        "waterway": "dam",
        "id": "node/5235222006"
      },
      "geometry": {
        "type": "Point",
        "coordinates": [
          -43.2684185,
          -22.9709259
        ]
      }
    },
    {
      "type": "Feature",
      "id": "node/5242649616",
      "properties": {
        "timestamp": "2020-07-31T22:33:33Z",
        "version": 3,
        "changeset": 88801539,
        "name": "cisterna de concreto",
        "waterway": "dam",
        "id": "node/5242649616"
      },
      "geometry": {
        "type": "Point",
        "coordinates": [
          -43.2909832,
          -22.9913363
        ]
      }
    },
    {
      "type": "Feature",
      "id": "node/5909885019",
      "properties": {
        "timestamp": "2020-08-17T15:30:06Z",
        "version": 2,
        "changeset": 89526630,
        "historic": "yes",
        "name": "Represa dos Ciganos",
        "waterway": "dam",
        "wikidata": "Q22069198",
        "id": "node/5909885019"
      },
      "geometry": {
        "type": "Point",
        "coordinates": [
          -43.3014245,
          -22.9270831
        ]
      }
    }
  ]
}
