{
  "type": "FeatureCollection",
  "features": [
    {
      "type": "Feature",
      "id": "node/541230334",
      "properties": {
        "timestamp": "2021-03-24T01:26:35Z",
        "version": 4,
        "changeset": 101604070,
        "name": "Jequitiba",
        "waterway": "waterfall",
        "id": "node/541230334"
      },
      "geometry": {
        "type": "Point",
        "coordinates": [
          -43.2488358,
          -22.9649327
        ]
      }
    },
    {
      "type": "Feature",
      "id": "node/541230340",
      "properties": {
        "timestamp": "2014-03-12T23:13:04Z",
        "version": 3,
        "changeset": 21074709,
        "name": "Cachoeira do Chuveiro",
        "waterway": "waterfall",
        "id": "node/541230340"
      },
      "geometry": {
        "type": "Point",
        "coordinates": [
          -43.2464868,
          -22.965024
        ]
      }
    },
    {
      "type": "Feature",
      "id": "node/3312750043",
      "properties": {
        "timestamp": "2016-06-15T02:32:10Z",
        "version": 2,
        "changeset": 40029677,
        "waterway": "waterfall",
        "id": "node/3312750043"
      },
      "geometry": {
        "type": "Point",
        "coordinates": [
          -43.2122265,
          -22.9584052
        ]
      }
    },
    {
      "type": "Feature",
      "id": "node/3418543949",
      "properties": {
        "timestamp": "2021-04-30T06:29:50Z",
        "version": 4,
        "changeset": 103886537,
        "name": "Cachoeira dos Primatas",
        "waterway": "waterfall",
        "wikidata": "Q22069113",
        "id": "node/3418543949"
      },
      "geometry": {
        "type": "Point",
        "coordinates": [
          -43.2280543,
          -22.9583731
        ]
      }
    },
    {
      "type": "Feature",
      "id": "node/3426872674",
      "properties": {
        "timestamp": "2015-05-23T12:22:24Z",
        "version": 2,
        "changeset": 31396344,
        "name": "Cachoeira da Gruta",
        "waterway": "waterfall",
        "id": "node/3426872674"
      },
      "geometry": {
        "type": "Point",
        "coordinates": [
          -43.2381087,
          -22.9616543
        ]
      }
    },
    {
      "type": "Feature",
      "id": "node/3789073057",
      "properties": {
        "timestamp": "2023-05-12T21:10:19Z",
        "version": 3,
        "changeset": 136035205,
        "name": "Cachoeira da Gruta",
        "waterway": "waterfall",
        "id": "node/3789073057"
      },
      "geometry": {
        "type": "Point",
        "coordinates": [
          -43.4930706,
          -22.9134545
        ]
      }
    },
    {
      "type": "Feature",
      "id": "node/4629964055",
      "properties": {
        "timestamp": "2017-01-24T18:22:35Z",
        "version": 1,
        "changeset": 45444252,
        "name": "Cachoeira Véu da Noiva",
        "waterway": "waterfall",
        "id": "node/4629964055"
      },
      "geometry": {
        "type": "Point",
        "coordinates": [
          -43.4395141,
          -22.9696615
        ]
      }
    },
    {
      "type": "Feature",
      "id": "node/4796469721",
      "properties": {
        "timestamp": "2017-04-16T12:07:50Z",
        "version": 1,
        "changeset": 47836822,
        "waterway": "waterfall",
        "id": "node/4796469721"
      },
      "geometry": {
        "type": "Point",
        "coordinates": [
          -43.2133743,
          -22.9563403
        ]
      }
    },
    {
      "type": "Feature",
      "id": "node/4832136121",
      "properties": {
        "timestamp": "2020-06-05T14:32:06Z",
        "version": 2,
        "changeset": 86249660,
        "name": "Represa do Horto",
        "waterway": "waterfall",
        "id": "node/4832136121"
      },
      "geometry": {
        "type": "Point",
        "coordinates": [
          -43.2419214,
          -22.9684521
        ]
      }
    },
    {
      "type": "Feature",
      "id": "node/5131654047",
      "properties": {
        "timestamp": "2020-02-26T21:36:52Z",
        "version": 2,
        "changeset": 81522081,
        "name": "Escada D'Água",
        "waterway": "waterfall",
        "id": "node/5131654047"
      },
      "geometry": {
        "type": "Point",
        "coordinates": [
          -43.4166397,
          -22.9450054
        ]
      }
    },
    {
      "type": "Feature",
      "id": "node/5235202739",
      "properties": {
        "timestamp": "2021-03-14T02:06:39Z",
        "version": 2,
        "changeset": 100975368,
        "name": "Cachoeira do Sertão",
        "waterway": "waterfall",
        "id": "node/5235202739"
      },
      "geometry": {
        "type": "Point",
        "coordinates": [
          -43.3193045,
          -22.9584201
        ]
      }
    },
    {
      "type": "Feature",
      "id": "node/5457306527",
      "properties": {
        "timestamp": "2022-02-11T15:15:04Z",
        "version": 2,
        "changeset": 117291973,
        "name": "Cachoeira do Horto",
        "waterway": "waterfall",
        "id": "node/5457306527"
      },
      "geometry": {
        "type": "Point",
        "coordinates": [
          -43.2473251,
          -22.9650043
        ]
      }
    },
    {
      "type": "Feature",
      "id": "node/6110034960",
      "properties": {
        "timestamp": "2020-12-17T20:42:32Z",
        "version": 2,
        "changeset": 96027432,
        "fixme": "exact location tbc",
        "waterway": "waterfall",
        "id": "node/6110034960"
      },
      "geometry": {
        "type": "Point",
        "coordinates": [
          -43.2259455,
          -22.9689194
        ]
      }
    },
    {
      "type": "Feature",
      "id": "node/7173001960",
      "properties": {
        "timestamp": "2020-01-30T19:09:33Z",
        "version": 1,
        "changeset": 80333834,
        "name": "Cachoeira da Pedra Espremida",
        "waterway": "waterfall",
        "id": "node/7173001960"
      },
      "geometry": {
        "type": "Point",
        "coordinates": [
          -43.4934455,
          -22.9131811
        ]
      }
    },
    {
      "type": "Feature",
      "id": "node/7228568742",
      "properties": {
        "timestamp": "2020-02-19T21:02:57Z",
        "version": 1,
        "changeset": 81239713,
        "name": "Cachoeira do Santinho",
        "waterway": "waterfall",
        "id": "node/7228568742"
      },
      "geometry": {
        "type": "Point",
        "coordinates": [
          -43.2214578,
          -22.9576403
        ]
      }
    },
    {
      "type": "Feature",
      "id": "node/8174514517",
      "properties": {
        "timestamp": "2020-11-28T20:35:15Z",
        "version": 1,
        "changeset": 94958560,
        "waterway": "waterfall",
        "id": "node/8174514517"
      },
      "geometry": {
        "type": "Point",
        "coordinates": [
          -43.487667,
          -22.9542143
        ]
      }
    },
    {
      "type": "Feature",
      "id": "node/8515732200",
      "properties": {
        "timestamp": "2021-03-14T02:06:39Z",
        "version": 1,
        "changeset": 100975368,
        "waterway": "waterfall",
        "id": "node/8515732200"
      },
      "geometry": {
        "type": "Point",
        "coordinates": [
          -43.3138765,
          -22.9470062
        ]
      }
    },
    {
      "type": "Feature",
      "id": "node/8596955436",
      "properties": {
        "timestamp": "2021-04-05T22:33:08Z",
        "version": 1,
        "changeset": 102359389,
        "name": "Cachoeira do Paraíso",
        "waterway": "waterfall",
        "id": "node/8596955436"
      },
      "geometry": {
        "type": "Point",
        "coordinates": [
          -43.2957378,
          -22.9842648
        ]
      }
    },
    {
      "type": "Feature",
      "id": "node/9441342248",
      "properties": {
        "timestamp": "2022-02-03T01:02:29Z",
        "version": 2,
        "changeset": 116941221,
        "name": "Cascatinha Taunay",
        "tourism": "attraction",
        "waterway": "waterfall",
        "id": "node/9441342248"
      },
      "geometry": {
        "type": "Point",
        "coordinates": [
          -43.2774796,
          -22.9585381
        ]
      }
    },
    {
      "type": "Feature",
      "id": "node/9441352519",
      "properties": {
        "timestamp": "2022-01-23T05:12:28Z",
        "version": 1,
        "changeset": 116487597,
        "name": "Cascata Gabriela",
        "tourism": "attraction",
        "waterway": "waterfall",
        "id": "node/9441352519"
      },
      "geometry": {
        "type": "Point",
        "coordinates": [
          -43.2891339,
          -22.9544793
        ]
      }
    },
    {
      "type": "Feature",
      "id": "node/9441352585",
      "properties": {
        "timestamp": "2022-01-23T05:12:28Z",
        "version": 1,
        "changeset": 116487597,
        "waterway": "waterfall",
        "id": "node/9441352585"
      },
      "geometry": {
        "type": "Point",
        "coordinates": [
          -43.2932536,
          -22.9532803
        ]
      }
    },
    {
      "type": "Feature",
      "id": "node/9441352587",
      "properties": {
        "timestamp": "2022-01-23T05:12:28Z",
        "version": 1,
        "changeset": 116487597,
        "name": "Cascata da Baronesa",
        "tourism": "attraction",
        "waterway": "waterfall",
        "id": "node/9441352587"
      },
      "geometry": {
        "type": "Point",
        "coordinates": [
          -43.2914948,
          -22.954198
        ]
      }
    },
    {
      "type": "Feature",
      "id": "node/9445160692",
      "properties": {
        "timestamp": "2022-01-24T16:41:56Z",
        "version": 1,
        "changeset": 116548588,
        "name": "Cachoeira das Almas",
        "tourism": "attraction",
        "waterway": "waterfall",
        "id": "node/9445160692"
      },
      "geometry": {
        "type": "Point",
        "coordinates": [
          -43.2868361,
          -22.948637
        ]
      }
    }
  ]
}
