{
  "type": "FeatureCollection",
  "features": [
    {
      "type": "Feature",
      "id": "node/2024734769",
      "properties": {
        "timestamp": "2017-09-11T06:03:21Z",
        "version": 4,
        "changeset": 51927718,
        "amenity": "cinema",
        "name": "Cine Olympia",
        "wikidata": "Q25443220",
        "wikipedia": "pt:Cine Olympia (Belém)",
        "id": "node/2024734769"
      },
      "geometry": {
        "type": "Point",
        "coordinates": [
          -48.4938395,
          -1.4537878
        ]
      }
    },
    {
      "type": "Feature",
      "id": "node/4228792636",
      "properties": {
        "timestamp": "2024-11-17T20:23:12Z",
        "version": 2,
        "changeset": 159258112,
        "amenity": "cinema",
        "name": "Cine Líbero Luxardo",
        "wikidata": "Q37856909",
        "id": "node/4228792636"
      },
      "geometry": {
        "type": "Point",
        "coordinates": [
          -48.4861586,
          -1.4564348
        ]
      }
    },
    {
      "type": "Feature",
      "id": "node/5217344231",
      "properties": {
        "timestamp": "2023-07-17T16:25:28Z",
        "version": 2,
        "changeset": 138629779,
        "addr:street": "Rodovia Augusto Montenegro",
        "amenity": "cinema",
        "brand": "Cinepolis",
        "brand:wikidata": "Q5686673",
        "level": "2",
        "name": "Cinépolis - Paque Shopping",
        "id": "node/5217344231"
      },
      "geometry": {
        "type": "Point",
        "coordinates": [
          -48.446677,
          -1.369909
        ]
      }
    },
    {
      "type": "Feature",
      "id": "node/6219695685",
      "properties": {
        "timestamp": "2019-01-18T23:27:31Z",
        "version": 1,
        "changeset": 66442551,
        "amenity": "cinema",
        "name": "Cinema Òpera, erótico",
        "id": "node/6219695685"
      },
      "geometry": {
        "type": "Point",
        "coordinates": [
          -48.4821999,
          -1.4519061
        ]
      }
    },
    {
      "type": "Feature",
      "id": "node/11412074493",
      "properties": {
        "timestamp": "2023-12-12T11:30:28Z",
        "version": 1,
        "changeset": 145033975,
        "amenity": "cinema",
        "id": "node/11412074493"
      },
      "geometry": {
        "type": "Point",
        "coordinates": [
          -48.4893148,
          -1.4458465
        ]
      }
    },
    {
      "type": "Feature",
      "id": "node/12404747646",
      "properties": {
        "timestamp": "2024-12-08T13:11:18Z",
        "version": 1,
        "changeset": 160056506,
        "addr:street": "Rua São Boaventura",
        "amenity": "cinema",
        "id": "node/12404747646"
      },
      "geometry": {
        "type": "Point",
        "coordinates": [
          -48.5050477,
          -1.4610209
        ]
      }
    }
  ]
}
