{
  "type": "FeatureCollection",
  "features": [
    {
      "type": "Feature",
      "id": "node/5654964222",
      "properties": {
        "timestamp": "2018-06-01T01:05:27Z",
        "version": 2,
        "changeset": 59446905,
        "amenity": "arts_centre",
        "name": "Concha Acústica Analis Ohara",
        "id": "node/5654964222"
      },
      "geometry": {
        "type": "Point",
        "coordinates": [
          -52.3625199,
          -24.0525909
        ]
      }
    },
    {
      "type": "Feature",
      "id": "node/5654969554",
      "properties": {
        "timestamp": "2018-06-01T01:05:27Z",
        "version": 1,
        "changeset": 59446905,
        "amenity": "arts_centre",
        "name": "Escola de Circo",
        "id": "node/5654969554"
      },
      "geometry": {
        "type": "Point",
        "coordinates": [
          -52.3652339,
          -24.0480619
        ]
      }
    },
    {
      "type": "Feature",
      "id": "node/5654972930",
      "properties": {
        "timestamp": "2018-06-01T01:11:55Z",
        "version": 1,
        "changeset": 59446965,
        "amenity": "arts_centre",
        "name": "SESC de Campo Mourão",
        "id": "node/5654972930"
      },
      "geometry": {
        "type": "Point",
        "coordinates": [
          -52.3679545,
          -24.0423136
        ]
      }
    },
    {
      "type": "Feature",
      "id": "node/5748413635",
      "properties": {
        "timestamp": "2018-07-09T05:20:03Z",
        "version": 1,
        "changeset": 60523960,
        "amenity": "arts_centre",
        "name": "Casa da Banda Municipal",
        "id": "node/5748413635"
      },
      "geometry": {
        "type": "Point",
        "coordinates": [
          -52.3921994,
          -24.042283
        ]
      }
    },
    {
      "type": "Feature",
      "id": "node/5748413638",
      "properties": {
        "timestamp": "2018-07-09T05:20:03Z",
        "version": 1,
        "changeset": 60523960,
        "amenity": "arts_centre",
        "name": "Casa da Música Rose Mary Albuquerque",
        "id": "node/5748413638"
      },
      "geometry": {
        "type": "Point",
        "coordinates": [
          -52.368429,
          -24.0556018
        ]
      }
    }
  ]
}
