{
  "type": "FeatureCollection",
  "features": [
    {
      "type": "Feature",
      "id": "node/5049887226",
      "properties": {
        "timestamp": "2017-08-22T02:20:08Z",
        "version": 1,
        "changeset": 51323502,
        "amenity": "college",
        "name": "Universidade Estadual do Paraná",
        "name:pt": "Universidade Estadual do Paraná",
        "id": "node/5049887226"
      },
      "geometry": {
        "type": "Point",
        "coordinates": [
          -52.38653,
          -24.0436107
        ]
      }
    },
    {
      "type": "Feature",
      "id": "node/5049890421",
      "properties": {
        "timestamp": "2017-08-22T02:20:12Z",
        "version": 1,
        "changeset": 51323502,
        "amenity": "college",
        "name": "Senac",
        "name:pt": "Senac",
        "id": "node/5049890421"
      },
      "geometry": {
        "type": "Point",
        "coordinates": [
          -52.3855499,
          -24.0440791
        ]
      }
    },
    {
      "type": "Feature",
      "id": "node/5055003124",
      "properties": {
        "timestamp": "2017-12-22T04:18:26Z",
        "version": 2,
        "changeset": 54831658,
        "amenity": "college",
        "name": "Senai",
        "name:pt": "Senai",
        "id": "node/5055003124"
      },
      "geometry": {
        "type": "Point",
        "coordinates": [
          -52.4278066,
          -24.0637585
        ]
      }
    },
    {
      "type": "Feature",
      "id": "node/5657636056",
      "properties": {
        "timestamp": "2018-06-02T02:54:29Z",
        "version": 1,
        "changeset": 59476142,
        "amenity": "college",
        "name": "CAIC",
        "id": "node/5657636056"
      },
      "geometry": {
        "type": "Point",
        "coordinates": [
          -52.3562942,
          -24.021961
        ]
      }
    },
    {
      "type": "Feature",
      "id": "node/5900698588",
      "properties": {
        "timestamp": "2018-09-12T01:11:51Z",
        "version": 1,
        "changeset": 62505507,
        "amenity": "college",
        "name": "CURSO OPERAÇÕES TÁTICAS SWAT/CATI",
        "name:pt": "Escola Formadora Operações SWAT/CATI",
        "id": "node/5900698588"
      },
      "geometry": {
        "type": "Point",
        "coordinates": [
          -52.37679,
          -24.0604253
        ]
      }
    }
  ]
}
