{
  "type": "FeatureCollection",
  "features": [
    {
      "type": "Feature",
      "id": "node/5655034304",
      "properties": {
        "timestamp": "2018-06-01T01:55:43Z",
        "version": 1,
        "changeset": 59447362,
        "historic": "monument",
        "name": "Estátua de São Francisco",
        "id": "node/5655034304"
      },
      "geometry": {
        "type": "Point",
        "coordinates": [
          -52.3640739,
          -24.0507431
        ]
      }
    },
    {
      "type": "Feature",
      "id": "node/5655034305",
      "properties": {
        "timestamp": "2018-06-01T01:55:43Z",
        "version": 1,
        "changeset": 59447362,
        "historic": "monument",
        "name": "Mural - Brasão de Campo Mourão",
        "id": "node/5655034305"
      },
      "geometry": {
        "type": "Point",
        "coordinates": [
          -52.3790483,
          -24.0429411
        ]
      }
    },
    {
      "type": "Feature",
      "id": "node/5655034309",
      "properties": {
        "timestamp": "2018-06-01T01:55:43Z",
        "version": 1,
        "changeset": 59447362,
        "historic": "monument",
        "name": "Lançamento do Programa de Solos",
        "id": "node/5655034309"
      },
      "geometry": {
        "type": "Point",
        "coordinates": [
          -52.3702469,
          -24.040192
        ]
      }
    },
    {
      "type": "Feature",
      "id": "node/5655034311",
      "properties": {
        "timestamp": "2018-06-01T01:55:43Z",
        "version": 1,
        "changeset": 59447362,
        "historic": "monument",
        "name": "Mural da OAB",
        "id": "node/5655034311"
      },
      "geometry": {
        "type": "Point",
        "coordinates": [
          -52.3692487,
          -24.0396264
        ]
      }
    },
    {
      "type": "Feature",
      "id": "node/5695533193",
      "properties": {
        "timestamp": "2018-06-16T22:55:29Z",
        "version": 1,
        "changeset": 59903932,
        "historic": "monument",
        "name": "Placa Comemorativa dos 30 Anos do Curso de Geografia",
        "id": "node/5695533193"
      },
      "geometry": {
        "type": "Point",
        "coordinates": [
          -52.3868131,
          -24.0438232
        ]
      }
    },
    {
      "type": "Feature",
      "id": "node/5748413634",
      "properties": {
        "timestamp": "2018-07-09T05:20:03Z",
        "version": 1,
        "changeset": 60523960,
        "historic": "monument",
        "name": "Monumento Lions Club",
        "id": "node/5748413634"
      },
      "geometry": {
        "type": "Point",
        "coordinates": [
          -52.3926575,
          -24.042537
        ]
      }
    },
    {
      "type": "Feature",
      "id": "node/5768695091",
      "properties": {
        "timestamp": "2018-07-18T16:44:17Z",
        "version": 1,
        "changeset": 60843462,
        "historic": "monument",
        "name": "Painel Colonização de Campo Mourão",
        "id": "node/5768695091"
      },
      "geometry": {
        "type": "Point",
        "coordinates": [
          -52.3804637,
          -24.0410468
        ]
      }
    },
    {
      "type": "Feature",
      "id": "node/5772073242",
      "properties": {
        "timestamp": "2023-02-03T03:21:21Z",
        "version": 3,
        "changeset": 132025303,
        "historic": "monument",
        "name": "Placa da Praça Getúlio Vargas",
        "id": "node/5772073242"
      },
      "geometry": {
        "type": "Point",
        "coordinates": [
          -52.3781146,
          -24.0439519
        ]
      }
    },
    {
      "type": "Feature",
      "id": "node/5960358285",
      "properties": {
        "timestamp": "2020-05-25T19:23:53Z",
        "version": 2,
        "changeset": 85730381,
        "historic": "monument",
        "name": "Antigo Monumento do Relógio de Sol",
        "id": "node/5960358285"
      },
      "geometry": {
        "type": "Point",
        "coordinates": [
          -52.3805522,
          -24.0558344
        ]
      }
    }
  ]
}
