{
  "type": "FeatureCollection",
  "features": [
    {
      "type": "Feature",
      "id": "node/1900586599",
      "properties": {
        "timestamp": "2012-09-05T14:52:55Z",
        "version": 1,
        "changeset": 12997170,
        "waterway": "waterfall",
        "id": "node/1900586599"
      },
      "geometry": {
        "type": "Point",
        "coordinates": [
          -52.3241781,
          -24.1011979
        ]
      }
    },
    {
      "type": "Feature",
      "id": "node/1900586633",
      "properties": {
        "timestamp": "2012-09-05T14:52:55Z",
        "version": 1,
        "changeset": 12997170,
        "waterway": "waterfall",
        "id": "node/1900586633"
      },
      "geometry": {
        "type": "Point",
        "coordinates": [
          -52.3317554,
          -24.1035084
        ]
      }
    },
    {
      "type": "Feature",
      "id": "node/2071414738",
      "properties": {
        "timestamp": "2012-12-17T12:53:20Z",
        "version": 1,
        "changeset": 14305735,
        "waterway": "waterfall",
        "id": "node/2071414738"
      },
      "geometry": {
        "type": "Point",
        "coordinates": [
          -52.2916726,
          -24.072917
        ]
      }
    },
    {
      "type": "Feature",
      "id": "node/7608687785",
      "properties": {
        "timestamp": "2020-06-10T11:14:49Z",
        "version": 1,
        "changeset": 86460320,
        "waterway": "waterfall",
        "id": "node/7608687785"
      },
      "geometry": {
        "type": "Point",
        "coordinates": [
          -52.2609585,
          -24.0197252
        ]
      }
    },
    {
      "type": "Feature",
      "id": "node/7608687885",
      "properties": {
        "timestamp": "2020-06-10T11:14:50Z",
        "version": 1,
        "changeset": 86460320,
        "name": "Cachoeira da Estrada Velha",
        "name:en": "Estrada Velhas's Waterffal.",
        "waterway": "waterfall",
        "id": "node/7608687885"
      },
      "geometry": {
        "type": "Point",
        "coordinates": [
          -52.2695031,
          -24.163676
        ]
      }
    },
    {
      "type": "Feature",
      "id": "node/7654164885",
      "properties": {
        "timestamp": "2020-06-26T02:13:49Z",
        "version": 1,
        "changeset": 87163865,
        "name": "Cachoeira Silvolandia",
        "name:en": "Silvolandia's Waterfall",
        "waterway": "waterfall",
        "id": "node/7654164885"
      },
      "geometry": {
        "type": "Point",
        "coordinates": [
          -52.2622319,
          -24.0331658
        ]
      }
    },
    {
      "type": "Feature",
      "id": "node/7654164985",
      "properties": {
        "timestamp": "2020-06-26T02:13:50Z",
        "version": 1,
        "changeset": 87163865,
        "name": "Salto do Rio Mourão",
        "waterway": "waterfall",
        "id": "node/7654164985"
      },
      "geometry": {
        "type": "Point",
        "coordinates": [
          -52.2659799,
          -24.032076
        ]
      }
    },
    {
      "type": "Feature",
      "id": "node/7654165085",
      "properties": {
        "timestamp": "2020-06-26T02:13:52Z",
        "version": 1,
        "changeset": 87163865,
        "name": "Cascata Águas do Boldão",
        "waterway": "waterfall",
        "id": "node/7654165085"
      },
      "geometry": {
        "type": "Point",
        "coordinates": [
          -52.4799608,
          -24.1296975
        ]
      }
    }
  ]
}
