{
  "type": "FeatureCollection",
  "features": [
    {
      "type": "Feature",
      "id": "node/5955239759",
      "properties": {
        "timestamp": "2018-10-04T19:09:04Z",
        "version": 1,
        "changeset": 63206957,
        "historic": "monument",
        "inscription": "Nascimento da Lagoa",
        "name": "Nossa Senhora da Piedade",
        "id": "node/5955239759"
      },
      "geometry": {
        "type": "Point",
        "coordinates": [
          -46.4070308,
          -18.7747564
        ]
      }
    },
    {
      "type": "Feature",
      "id": "node/5955352799",
      "properties": {
        "timestamp": "2018-10-04T19:44:16Z",
        "version": 1,
        "changeset": 63207975,
        "historic": "monument",
        "name": "Caixa dágua nova",
        "id": "node/5955352799"
      },
      "geometry": {
        "type": "Point",
        "coordinates": [
          -46.4023225,
          -18.7726709
        ]
      }
    },
    {
      "type": "Feature",
      "id": "node/5955352800",
      "properties": {
        "timestamp": "2018-10-04T19:44:17Z",
        "version": 1,
        "changeset": 63207975,
        "historic": "monument",
        "name": "Pirâmide Lagoense",
        "id": "node/5955352800"
      },
      "geometry": {
        "type": "Point",
        "coordinates": [
          -46.4019323,
          -18.7720685
        ]
      }
    },
    {
      "type": "Feature",
      "id": "node/5955354017",
      "properties": {
        "timestamp": "2018-10-04T19:44:18Z",
        "version": 1,
        "changeset": 63207975,
        "historic": "monument",
        "name": "Ponto de criação Capela de São Francisco",
        "id": "node/5955354017"
      },
      "geometry": {
        "type": "Point",
        "coordinates": [
          -46.4089174,
          -18.7719898
        ]
      }
    },
    {
      "type": "Feature",
      "id": "node/5962963159",
      "properties": {
        "timestamp": "2018-10-06T23:09:12Z",
        "version": 1,
        "changeset": 63267888,
        "historic": "monument",
        "name": "Grampo",
        "id": "node/5962963159"
      },
      "geometry": {
        "type": "Point",
        "coordinates": [
          -46.4054194,
          -18.7775789
        ]
      }
    },
    {
      "type": "Feature",
      "id": "node/5963033251",
      "properties": {
        "timestamp": "2018-10-06T23:45:40Z",
        "version": 1,
        "changeset": 63268186,
        "historic": "monument",
        "name": "Pirâmide",
        "id": "node/5963033251"
      },
      "geometry": {
        "type": "Point",
        "coordinates": [
          -46.4120298,
          -18.7751509
        ]
      }
    }
  ]
}
