{
  "type": "FeatureCollection",
  "features": [
    {
      "type": "Feature",
      "id": "node/1341789163",
      "properties": {
        "timestamp": "2011-06-27T23:55:02Z",
        "version": 1,
        "changeset": 8567495,
        "name": "Cachoeira de São Bartolomeu",
        "waterway": "waterfall",
        "id": "node/1341789163"
      },
      "geometry": {
        "type": "Point",
        "coordinates": [
          -47.4480784,
          -13.826945
        ]
      }
    },
    {
      "type": "Feature",
      "id": "node/2590164100",
      "properties": {
        "timestamp": "2022-04-13T00:49:36Z",
        "version": 3,
        "changeset": 119643444,
        "name": "Salto 120",
        "tourism": "attraction",
        "waterway": "waterfall",
        "id": "node/2590164100"
      },
      "geometry": {
        "type": "Point",
        "coordinates": [
          -47.8472609,
          -14.1662553
        ]
      }
    },
    {
      "type": "Feature",
      "id": "node/2617915976",
      "properties": {
        "timestamp": "2021-06-01T14:01:12Z",
        "version": 2,
        "changeset": 105682142,
        "name": "Veredinha",
        "waterway": "waterfall",
        "id": "node/2617915976"
      },
      "geometry": {
        "type": "Point",
        "coordinates": [
          -47.4505069,
          -13.8490298
        ]
      }
    },
    {
      "type": "Feature",
      "id": "node/2617916130",
      "properties": {
        "timestamp": "2021-06-01T14:01:12Z",
        "version": 2,
        "changeset": 105682142,
        "name": "Veredas",
        "waterway": "waterfall",
        "id": "node/2617916130"
      },
      "geometry": {
        "type": "Point",
        "coordinates": [
          -47.4501679,
          -13.8483039
        ]
      }
    },
    {
      "type": "Feature",
      "id": "node/2827912406",
      "properties": {
        "timestamp": "2014-04-30T22:58:42Z",
        "version": 1,
        "changeset": 22054025,
        "name": "Cachoeira Ave Maria",
        "tourism": "attraction",
        "waterway": "waterfall",
        "id": "node/2827912406"
      },
      "geometry": {
        "type": "Point",
        "coordinates": [
          -47.4707641,
          -13.6839785
        ]
      }
    },
    {
      "type": "Feature",
      "id": "node/2827912407",
      "properties": {
        "timestamp": "2014-08-31T15:29:30Z",
        "version": 3,
        "changeset": 25141066,
        "name": "Cachoeira Santa Bárbara",
        "tourism": "attraction",
        "waterway": "waterfall",
        "id": "node/2827912407"
      },
      "geometry": {
        "type": "Point",
        "coordinates": [
          -47.4927976,
          -13.5397352
        ]
      }
    },
    {
      "type": "Feature",
      "id": "node/2827912408",
      "properties": {
        "timestamp": "2014-04-30T22:58:42Z",
        "version": 1,
        "changeset": 22054025,
        "name": "Cachoeira da Capivara",
        "tourism": "attraction",
        "waterway": "waterfall",
        "id": "node/2827912408"
      },
      "geometry": {
        "type": "Point",
        "coordinates": [
          -47.457421,
          -13.585409
        ]
      }
    },
    {
      "type": "Feature",
      "id": "node/2827912409",
      "properties": {
        "timestamp": "2014-04-30T22:58:42Z",
        "version": 1,
        "changeset": 22054025,
        "name": "Cachoeira do Prata",
        "tourism": "attraction",
        "waterway": "waterfall",
        "id": "node/2827912409"
      },
      "geometry": {
        "type": "Point",
        "coordinates": [
          -47.6449465,
          -13.4058125
        ]
      }
    },
    {
      "type": "Feature",
      "id": "node/2827949592",
      "properties": {
        "timestamp": "2022-04-13T00:49:36Z",
        "version": 2,
        "changeset": 119643444,
        "name": "Cachoeira Santana",
        "waterway": "waterfall",
        "id": "node/2827949592"
      },
      "geometry": {
        "type": "Point",
        "coordinates": [
          -47.3948693,
          -13.8619711
        ]
      }
    },
    {
      "type": "Feature",
      "id": "node/5197167171",
      "properties": {
        "timestamp": "2022-04-13T00:49:36Z",
        "version": 2,
        "changeset": 119643444,
        "name": "Sete Quedas",
        "tourism": "attraction",
        "waterway": "waterfall",
        "id": "node/5197167171"
      },
      "geometry": {
        "type": "Point",
        "coordinates": [
          -47.7535085,
          -14.0951464
        ]
      }
    },
    {
      "type": "Feature",
      "id": "node/5197196851",
      "properties": {
        "timestamp": "2022-04-13T00:49:36Z",
        "version": 2,
        "changeset": 119643444,
        "name": "Cachoeira do Carrossel",
        "tourism": "attraction",
        "waterway": "waterfall",
        "id": "node/5197196851"
      },
      "geometry": {
        "type": "Point",
        "coordinates": [
          -47.842496,
          -14.1612859
        ]
      }
    },
    {
      "type": "Feature",
      "id": "node/5197196854",
      "properties": {
        "timestamp": "2022-04-13T00:49:36Z",
        "version": 2,
        "changeset": 119643444,
        "name": "Salto 80",
        "tourism": "attraction",
        "waterway": "waterfall",
        "id": "node/5197196854"
      },
      "geometry": {
        "type": "Point",
        "coordinates": [
          -47.8445652,
          -14.1637108
        ]
      }
    },
    {
      "type": "Feature",
      "id": "node/6478266287",
      "properties": {
        "timestamp": "2019-05-16T14:52:19Z",
        "version": 1,
        "changeset": 70322661,
        "name": "Entrada Santa Bárbara",
        "waterway": "waterfall",
        "id": "node/6478266287"
      },
      "geometry": {
        "type": "Point",
        "coordinates": [
          -47.4597455,
          -13.7868092
        ]
      }
    },
    {
      "type": "Feature",
      "id": "node/9573501495",
      "properties": {
        "timestamp": "2022-03-12T18:25:49Z",
        "version": 2,
        "changeset": 118408360,
        "name": "Cachoeira de São Félix",
        "tourism": "attraction",
        "waterway": "waterfall",
        "id": "node/9573501495"
      },
      "geometry": {
        "type": "Point",
        "coordinates": [
          -47.7126333,
          -13.5597586
        ]
      }
    },
    {
      "type": "Feature",
      "id": "node/9573510362",
      "properties": {
        "timestamp": "2022-03-12T18:31:36Z",
        "version": 1,
        "changeset": 118408514,
        "name": "Cachoeira Rei do Prata",
        "tourism": "attraction",
        "waterway": "waterfall",
        "id": "node/9573510362"
      },
      "geometry": {
        "type": "Point",
        "coordinates": [
          -47.6535738,
          -13.4149806
        ]
      }
    },
    {
      "type": "Feature",
      "id": "node/10311367995",
      "properties": {
        "timestamp": "2023-01-06T16:03:36Z",
        "version": 1,
        "changeset": 130953742,
        "name": "Cânion II",
        "tourism": "attraction",
        "waterway": "waterfall",
        "id": "node/10311367995"
      },
      "geometry": {
        "type": "Point",
        "coordinates": [
          -47.8140533,
          -14.1444318
        ]
      }
    },
    {
      "type": "Feature",
      "id": "node/10804860405",
      "properties": {
        "timestamp": "2023-04-12T15:48:24Z",
        "version": 1,
        "changeset": 134824156,
        "name": "Cachoeira Lava-pés",
        "waterway": "waterfall",
        "id": "node/10804860405"
      },
      "geometry": {
        "type": "Point",
        "coordinates": [
          -47.4680725,
          -13.8042026
        ]
      }
    },
    {
      "type": "Feature",
      "id": "node/10834228806",
      "properties": {
        "timestamp": "2023-04-23T17:11:56Z",
        "version": 1,
        "changeset": 135270633,
        "name": "Poço Encantado",
        "waterway": "waterfall",
        "id": "node/10834228806"
      },
      "geometry": {
        "type": "Point",
        "coordinates": [
          -47.4500694,
          -13.8540969
        ]
      }
    },
    {
      "type": "Feature",
      "id": "node/10834234412",
      "properties": {
        "timestamp": "2023-04-23T17:24:29Z",
        "version": 1,
        "changeset": 135271035,
        "name": "Escondidinha",
        "waterway": "waterfall",
        "id": "node/10834234412"
      },
      "geometry": {
        "type": "Point",
        "coordinates": [
          -47.4500322,
          -13.8550471
        ]
      }
    },
    {
      "type": "Feature",
      "id": "node/10834243905",
      "properties": {
        "timestamp": "2023-04-23T17:19:34Z",
        "version": 1,
        "changeset": 135270893,
        "name": "Lara",
        "waterway": "waterfall",
        "id": "node/10834243905"
      },
      "geometry": {
        "type": "Point",
        "coordinates": [
          -47.4506179,
          -13.8542141
        ]
      }
    },
    {
      "type": "Feature",
      "id": "node/10834246505",
      "properties": {
        "timestamp": "2023-04-23T17:22:33Z",
        "version": 1,
        "changeset": 135270971,
        "name": "Cascata",
        "waterway": "waterfall",
        "id": "node/10834246505"
      },
      "geometry": {
        "type": "Point",
        "coordinates": [
          -47.450397,
          -13.8547942
        ]
      }
    },
    {
      "type": "Feature",
      "id": "node/10834250705",
      "properties": {
        "timestamp": "2023-04-23T17:27:08Z",
        "version": 1,
        "changeset": 135271114,
        "name": "Toca da Onça",
        "waterway": "waterfall",
        "id": "node/10834250705"
      },
      "geometry": {
        "type": "Point",
        "coordinates": [
          -47.450286,
          -13.8552816
        ]
      }
    },
    {
      "type": "Feature",
      "id": "node/10834275905",
      "properties": {
        "timestamp": "2023-04-23T17:40:39Z",
        "version": 1,
        "changeset": 135271608,
        "name": "Véu de Noiva",
        "waterway": "waterfall",
        "id": "node/10834275905"
      },
      "geometry": {
        "type": "Point",
        "coordinates": [
          -47.4530054,
          -13.8660289
        ]
      }
    }
  ]
}
