{
  "type": "FeatureCollection",
  "features": [
    {
      "type": "Feature",
      "id": "node/2428448464",
      "properties": {
        "timestamp": "2017-04-12T03:40:13Z",
        "version": 2,
        "changeset": 47680726,
        "name": "Cachoeira Salto Grande",
        "waterway": "waterfall",
        "id": "node/2428448464"
      },
      "geometry": {
        "type": "Point",
        "coordinates": [
          -48.2197603,
          -21.8033329
        ]
      }
    },
    {
      "type": "Feature",
      "id": "node/3722248511",
      "properties": {
        "timestamp": "2015-08-31T02:38:23Z",
        "version": 1,
        "changeset": 33694347,
        "waterway": "waterfall",
        "id": "node/3722248511"
      },
      "geometry": {
        "type": "Point",
        "coordinates": [
          -48.1311517,
          -21.7717673
        ]
      }
    },
    {
      "type": "Feature",
      "id": "node/3722249629",
      "properties": {
        "timestamp": "2015-08-31T02:38:23Z",
        "version": 1,
        "changeset": 33694347,
        "waterway": "waterfall",
        "id": "node/3722249629"
      },
      "geometry": {
        "type": "Point",
        "coordinates": [
          -48.1311391,
          -21.7718329
        ]
      }
    },
    {
      "type": "Feature",
      "id": "node/4817276773",
      "properties": {
        "timestamp": "2023-12-23T18:54:37Z",
        "version": 2,
        "changeset": 145446942,
        "waterway": "waterfall",
        "id": "node/4817276773"
      },
      "geometry": {
        "type": "Point",
        "coordinates": [
          -48.1112502,
          -21.8838623
        ]
      }
    },
    {
      "type": "Feature",
      "id": "node/8170923017",
      "properties": {
        "timestamp": "2021-09-18T17:19:48Z",
        "version": 2,
        "changeset": 111384020,
        "name": "Cachoeira Nova Era",
        "waterway": "waterfall",
        "id": "node/8170923017"
      },
      "geometry": {
        "type": "Point",
        "coordinates": [
          -48.0865797,
          -21.9372445
        ]
      }
    },
    {
      "type": "Feature",
      "id": "node/8171551884",
      "properties": {
        "timestamp": "2021-07-13T16:24:11Z",
        "version": 2,
        "changeset": 107923037,
        "name": "Cachoeira da Ripasa",
        "waterway": "waterfall",
        "id": "node/8171551884"
      },
      "geometry": {
        "type": "Point",
        "coordinates": [
          -47.9821057,
          -21.784087
        ]
      }
    },
    {
      "type": "Feature",
      "id": "node/8917075533",
      "properties": {
        "timestamp": "2021-07-13T16:24:11Z",
        "version": 1,
        "changeset": 107923037,
        "name": "Cachoeira das Cabaceiras",
        "waterway": "waterfall",
        "id": "node/8917075533"
      },
      "geometry": {
        "type": "Point",
        "coordinates": [
          -47.9861048,
          -21.7810608
        ]
      }
    },
    {
      "type": "Feature",
      "id": "node/9018006025",
      "properties": {
        "timestamp": "2023-12-20T16:36:02Z",
        "version": 2,
        "changeset": 145338563,
        "name": "Salto do Ouro",
        "waterway": "waterfall",
        "id": "node/9018006025"
      },
      "geometry": {
        "type": "Point",
        "coordinates": [
          -48.21403,
          -21.8273424
        ]
      }
    }
  ]
}
