{
  "type": "FeatureCollection",
  "features": [
    {
      "type": "Feature",
      "id": "node/12586242030",
      "properties": {
        "timestamp": "2025-02-20T13:38:23Z",
        "version": 3,
        "changeset": 162741748,
        "amenity": "community_centre",
        "name": "Associação de Pais e Amigos dos Excepcionais de Oeiras - APAE",
        "id": "node/12586242030"
      },
      "geometry": {
        "type": "Point",
        "coordinates": [
          -42.1243504,
          -7.0123655
        ]
      }
    },
    {
      "type": "Feature",
      "id": "node/12586242364",
      "properties": {
        "timestamp": "2025-02-20T13:38:23Z",
        "version": 3,
        "changeset": 162741748,
        "amenity": "community_centre",
        "name": "Associação dos Condutores de Turismo de Oeiras",
        "id": "node/12586242364"
      },
      "geometry": {
        "type": "Point",
        "coordinates": [
          -42.1314589,
          -7.0180915
        ]
      }
    },
    {
      "type": "Feature",
      "id": "node/12586242403",
      "properties": {
        "timestamp": "2025-02-20T13:38:23Z",
        "version": 3,
        "changeset": 162741748,
        "amenity": "community_centre",
        "name": "APEP-Associação dos Professores do Est do Piauí",
        "id": "node/12586242403"
      },
      "geometry": {
        "type": "Point",
        "coordinates": [
          -42.1335973,
          -7.0188388
        ]
      }
    },
    {
      "type": "Feature",
      "id": "node/12586242404",
      "properties": {
        "timestamp": "2025-02-20T13:38:23Z",
        "version": 3,
        "changeset": 162741748,
        "amenity": "community_centre",
        "community_centre": "cultural_centre",
        "name": "Sobrado Major Selemérico",
        "id": "node/12586242404"
      },
      "geometry": {
        "type": "Point",
        "coordinates": [
          -42.1326854,
          -7.0186118
        ]
      }
    },
    {
      "type": "Feature",
      "id": "node/12586242488",
      "properties": {
        "timestamp": "2025-02-20T13:38:23Z",
        "version": 3,
        "changeset": 162741748,
        "amenity": "community_centre",
        "name": "Loteamento Novo Rosário (Conjunto Herivelto)",
        "id": "node/12586242488"
      },
      "geometry": {
        "type": "Point",
        "coordinates": [
          -42.1275138,
          -7.0294432
        ]
      }
    }
  ]
}
