{
  "type": "FeatureCollection",
  "features": [
    {
      "type": "Feature",
      "id": "node/12586241996",
      "properties": {
        "timestamp": "2025-02-20T13:38:23Z",
        "version": 3,
        "changeset": 162741748,
        "amenity": "dentist",
        "healthcare": "dentist",
        "name": "Clínica Odonto X",
        "id": "node/12586241996"
      },
      "geometry": {
        "type": "Point",
        "coordinates": [
          -42.1249542,
          -7.0104265
        ]
      }
    },
    {
      "type": "Feature",
      "id": "node/12586242160",
      "properties": {
        "timestamp": "2025-02-20T13:38:23Z",
        "version": 3,
        "changeset": 162741748,
        "amenity": "dentist",
        "healthcare": "dentist",
        "name": "Consultório Odontológico Dra Raimunda",
        "id": "node/12586242160"
      },
      "geometry": {
        "type": "Point",
        "coordinates": [
          -42.1322647,
          -7.0133927
        ]
      }
    },
    {
      "type": "Feature",
      "id": "node/12586242266",
      "properties": {
        "timestamp": "2025-02-20T13:38:23Z",
        "version": 3,
        "changeset": 162741748,
        "amenity": "dentist",
        "healthcare": "dentist",
        "name": "Dra. Luma Figueiredo Odontologia",
        "id": "node/12586242266"
      },
      "geometry": {
        "type": "Point",
        "coordinates": [
          -42.1274772,
          -7.0166084
        ]
      }
    },
    {
      "type": "Feature",
      "id": "node/12586242271",
      "properties": {
        "timestamp": "2025-02-20T13:38:23Z",
        "version": 3,
        "changeset": 162741748,
        "amenity": "dentist",
        "healthcare": "dentist",
        "name": "Dra. Amanda Mesquita | Odontologia",
        "id": "node/12586242271"
      },
      "geometry": {
        "type": "Point",
        "coordinates": [
          -42.1279333,
          -7.0165249
        ]
      }
    },
    {
      "type": "Feature",
      "id": "node/12586242281",
      "properties": {
        "timestamp": "2025-02-20T13:38:23Z",
        "version": 3,
        "changeset": 162741748,
        "amenity": "dentist",
        "healthcare": "dentist",
        "healthcare:speciality": "orthodontics",
        "name": "Clinica Odontomed, Ortodontia e odontologia",
        "id": "node/12586242281"
      },
      "geometry": {
        "type": "Point",
        "coordinates": [
          -42.1291405,
          -7.0174976
        ]
      }
    },
    {
      "type": "Feature",
      "id": "node/12586242283",
      "properties": {
        "timestamp": "2025-02-20T13:38:23Z",
        "version": 3,
        "changeset": 162741748,
        "amenity": "dentist",
        "healthcare": "dentist",
        "name": "Clínica Odontomed",
        "id": "node/12586242283"
      },
      "geometry": {
        "type": "Point",
        "coordinates": [
          -42.129413,
          -7.016564
        ]
      }
    }
  ]
}
