{
  "type": "FeatureCollection",
  "features": [
    {
      "type": "Feature",
      "id": "node/4698260194",
      "properties": {
        "timestamp": "2022-08-06T02:53:45Z",
        "version": 3,
        "changeset": 124544645,
        "amenity": "pharmacy",
        "healthcare": "pharmacy",
        "name": "Preço Popular",
        "id": "node/4698260194"
      },
      "geometry": {
        "type": "Point",
        "coordinates": [
          -48.7483373,
          -26.4073553
        ]
      }
    },
    {
      "type": "Feature",
      "id": "node/4698260394",
      "properties": {
        "timestamp": "2017-02-22T00:22:58Z",
        "version": 1,
        "changeset": 46291273,
        "amenity": "pharmacy",
        "name": "FarmaGilson",
        "name:pt": "FarmaGilson",
        "id": "node/4698260394"
      },
      "geometry": {
        "type": "Point",
        "coordinates": [
          -48.7998692,
          -26.4068158
        ]
      }
    },
    {
      "type": "Feature",
      "id": "node/4698260395",
      "properties": {
        "timestamp": "2017-02-22T00:23:00Z",
        "version": 1,
        "changeset": 46291273,
        "amenity": "pharmacy",
        "name": "FarmaCerta",
        "name:pt": "FarmaCerta",
        "id": "node/4698260395"
      },
      "geometry": {
        "type": "Point",
        "coordinates": [
          -48.7979035,
          -26.4091904
        ]
      }
    },
    {
      "type": "Feature",
      "id": "node/4698269289",
      "properties": {
        "timestamp": "2021-03-31T04:43:24Z",
        "version": 2,
        "changeset": 102021897,
        "amenity": "pharmacy",
        "healthcare": "pharmacy",
        "name": "Farmácia Joinvillense",
        "name:pt": "Farmácia Joinvillense",
        "id": "node/4698269289"
      },
      "geometry": {
        "type": "Point",
        "coordinates": [
          -48.8023869,
          -26.40326
        ]
      }
    },
    {
      "type": "Feature",
      "id": "node/4698269489",
      "properties": {
        "timestamp": "2021-03-31T04:43:24Z",
        "version": 2,
        "changeset": 102021897,
        "amenity": "pharmacy",
        "healthcare": "pharmacy",
        "name": "Farmácia Econômica",
        "name:pt": "Farmácia Econômica",
        "id": "node/4698269489"
      },
      "geometry": {
        "type": "Point",
        "coordinates": [
          -48.794048,
          -26.4130516
        ]
      }
    },
    {
      "type": "Feature",
      "id": "node/4698269589",
      "properties": {
        "timestamp": "2022-08-06T02:53:45Z",
        "version": 3,
        "changeset": 124544645,
        "amenity": "pharmacy",
        "healthcare": "pharmacy",
        "name": "Drogaria Araquari",
        "old_name": "Farmácia Coradelli",
        "id": "node/4698269589"
      },
      "geometry": {
        "type": "Point",
        "coordinates": [
          -48.7185215,
          -26.3756078
        ]
      }
    },
    {
      "type": "Feature",
      "id": "node/4698269590",
      "properties": {
        "timestamp": "2022-02-17T14:32:09Z",
        "version": 3,
        "changeset": 117524672,
        "amenity": "pharmacy",
        "healthcare": "pharmacy",
        "name": "Drogaria Bom Jesus",
        "name:pt": "Drogaria Bom Jesus",
        "id": "node/4698269590"
      },
      "geometry": {
        "type": "Point",
        "coordinates": [
          -48.7239393,
          -26.3723012
        ]
      }
    },
    {
      "type": "Feature",
      "id": "node/9514039897",
      "properties": {
        "timestamp": "2022-02-17T14:32:09Z",
        "version": 1,
        "changeset": 117524672,
        "amenity": "pharmacy",
        "dispensing": "yes",
        "healthcare": "pharmacy",
        "name": "Farmácia Kenkoh",
        "phone": "+55 47 3063-2514",
        "id": "node/9514039897"
      },
      "geometry": {
        "type": "Point",
        "coordinates": [
          -48.7123812,
          -26.3714275
        ]
      }
    }
  ]
}
