{
  "type": "FeatureCollection",
  "features": [
    {
      "type": "Feature",
      "id": "node/5720034249",
      "properties": {
        "timestamp": "2018-06-26T10:43:14Z",
        "version": 1,
        "changeset": 60177906,
        "amenity": "school",
        "name": "Escola Municipal Levi Roberto",
        "id": "node/5720034249"
      },
      "geometry": {
        "type": "Point",
        "coordinates": [
          -41.2738533,
          -15.9919973
        ]
      }
    },
    {
      "type": "Feature",
      "id": "node/5722861748",
      "properties": {
        "timestamp": "2018-06-27T11:13:38Z",
        "version": 1,
        "changeset": 60213047,
        "amenity": "school",
        "name": "Escola Estadual Ana Farias",
        "id": "node/5722861748"
      },
      "geometry": {
        "type": "Point",
        "coordinates": [
          -41.2802838,
          -15.9969434
        ]
      }
    },
    {
      "type": "Feature",
      "id": "node/5722861749",
      "properties": {
        "timestamp": "2018-06-27T11:13:38Z",
        "version": 1,
        "changeset": 60213047,
        "amenity": "school",
        "name": "Escola Estadual Justino Ruas",
        "id": "node/5722861749"
      },
      "geometry": {
        "type": "Point",
        "coordinates": [
          -41.2831144,
          -15.9919341
        ]
      }
    },
    {
      "type": "Feature",
      "id": "node/5735077448",
      "properties": {
        "timestamp": "2018-07-02T21:14:49Z",
        "version": 1,
        "changeset": 60359297,
        "amenity": "school",
        "name": "Escola Estadual Cassiano Mendes",
        "source": "IBGE",
        "id": "node/5735077448"
      },
      "geometry": {
        "type": "Point",
        "coordinates": [
          -41.2865117,
          -16.0062701
        ]
      }
    },
    {
      "type": "Feature",
      "id": "node/5735077450",
      "properties": {
        "timestamp": "2018-07-02T21:14:50Z",
        "version": 1,
        "changeset": 60359297,
        "amenity": "school",
        "name": "Escola Estadual Pacífico Farias",
        "id": "node/5735077450"
      },
      "geometry": {
        "type": "Point",
        "coordinates": [
          -41.2831045,
          -16.0041928
        ]
      }
    },
    {
      "type": "Feature",
      "id": "node/5735125292",
      "properties": {
        "timestamp": "2018-07-02T21:47:02Z",
        "version": 1,
        "changeset": 60359807,
        "amenity": "school",
        "name": "Escola Estadual Carlos Américo",
        "id": "node/5735125292"
      },
      "geometry": {
        "type": "Point",
        "coordinates": [
          -41.2804524,
          -16.00955
        ]
      }
    },
    {
      "type": "Feature",
      "id": "node/5735125293",
      "properties": {
        "timestamp": "2018-07-02T21:47:02Z",
        "version": 1,
        "changeset": 60359807,
        "amenity": "school",
        "name": "Escola Municipal Doutor Clemente Farias",
        "id": "node/5735125293"
      },
      "geometry": {
        "type": "Point",
        "coordinates": [
          -41.2814257,
          -16.0060596
        ]
      }
    },
    {
      "type": "Feature",
      "id": "node/5736274291",
      "properties": {
        "timestamp": "2018-07-03T10:53:37Z",
        "version": 1,
        "changeset": 60374786,
        "amenity": "school",
        "name": "Escola Estadual João de Almeida",
        "id": "node/5736274291"
      },
      "geometry": {
        "type": "Point",
        "coordinates": [
          -41.27931,
          -16.0043194
        ]
      }
    },
    {
      "type": "Feature",
      "id": "node/5741010437",
      "properties": {
        "timestamp": "2018-07-05T10:52:26Z",
        "version": 1,
        "changeset": 60433251,
        "amenity": "school",
        "name": "Escola Municipal Luiza Veloso",
        "id": "node/5741010437"
      },
      "geometry": {
        "type": "Point",
        "coordinates": [
          -41.2702199,
          -15.9949881
        ]
      }
    }
  ]
}
