{
  "type": "FeatureCollection",
  "features": [
    {
      "type": "Feature",
      "id": "node/2443659853",
      "properties": {
        "timestamp": "2013-09-02T22:24:07Z",
        "version": 1,
        "changeset": 17645010,
        "name": "Real Bike",
        "shop": "bicycle",
        "id": "node/2443659853"
      },
      "geometry": {
        "type": "Point",
        "coordinates": [
          -44.2932091,
          -22.4163374
        ]
      }
    },
    {
      "type": "Feature",
      "id": "node/2464677910",
      "properties": {
        "timestamp": "2013-09-19T22:01:14Z",
        "version": 1,
        "changeset": 17931206,
        "name": "Dream Bike",
        "shop": "bicycle",
        "id": "node/2464677910"
      },
      "geometry": {
        "type": "Point",
        "coordinates": [
          -44.298034,
          -22.412167
        ]
      }
    },
    {
      "type": "Feature",
      "id": "node/2472286626",
      "properties": {
        "timestamp": "2014-01-22T00:06:02Z",
        "version": 2,
        "changeset": 20132845,
        "addr:city": "Porto Real",
        "addr:postcode": "27570-000",
        "addr:street": "Avenida C",
        "name": "Marcinho Bike",
        "operator": "Private",
        "phone": "24 99777896",
        "shop": "bicycle",
        "source": "Local",
        "id": "node/2472286626"
      },
      "geometry": {
        "type": "Point",
        "coordinates": [
          -44.293652,
          -22.420276
        ]
      }
    },
    {
      "type": "Feature",
      "id": "node/2482178337",
      "properties": {
        "timestamp": "2013-10-04T10:58:41Z",
        "version": 1,
        "changeset": 18176283,
        "name": "Bicicletaria Porto Real",
        "shop": "bicycle",
        "source": "Local",
        "id": "node/2482178337"
      },
      "geometry": {
        "type": "Point",
        "coordinates": [
          -44.285252,
          -22.423947
        ]
      }
    },
    {
      "type": "Feature",
      "id": "node/2482210442",
      "properties": {
        "timestamp": "2013-10-04T11:20:04Z",
        "version": 1,
        "changeset": 18176562,
        "name": "Cris Bike",
        "phone": "24 33534616",
        "shop": "bicycle",
        "source": "Local",
        "id": "node/2482210442"
      },
      "geometry": {
        "type": "Point",
        "coordinates": [
          -44.308581,
          -22.446922
        ]
      }
    }
  ]
}
