{
  "type": "FeatureCollection",
  "features": [
    {
      "type": "Feature",
      "id": "node/2388699556",
      "properties": {
        "timestamp": "2016-11-10T18:49:53Z",
        "version": 2,
        "changeset": 43542752,
        "description": "Segunda queda",
        "name": "Cachoeira Paraíso Perdido",
        "waterway": "waterfall",
        "id": "node/2388699556"
      },
      "geometry": {
        "type": "Point",
        "coordinates": [
          -46.333582,
          -20.606717
        ]
      }
    },
    {
      "type": "Feature",
      "id": "node/4437775091",
      "properties": {
        "timestamp": "2023-09-18T18:07:47Z",
        "version": 3,
        "changeset": 141436708,
        "name": "Cachoeira do Filó",
        "waterway": "waterfall",
        "id": "node/4437775091"
      },
      "geometry": {
        "type": "Point",
        "coordinates": [
          -46.3276251,
          -20.6513264
        ]
      }
    },
    {
      "type": "Feature",
      "id": "node/4491168083",
      "properties": {
        "timestamp": "2016-11-09T19:00:02Z",
        "version": 1,
        "changeset": 43518229,
        "name": "Cachoeira Paraíso Perdido",
        "waterway": "waterfall",
        "id": "node/4491168083"
      },
      "geometry": {
        "type": "Point",
        "coordinates": [
          -46.3248101,
          -20.6266138
        ]
      }
    },
    {
      "type": "Feature",
      "id": "node/4492984372",
      "properties": {
        "timestamp": "2016-11-10T18:48:34Z",
        "version": 1,
        "changeset": 43542752,
        "name": "Cachoeira Filó",
        "tourism": "yes",
        "waterway": "waterfall",
        "id": "node/4492984372"
      },
      "geometry": {
        "type": "Point",
        "coordinates": [
          -46.3223247,
          -20.6467194
        ]
      }
    },
    {
      "type": "Feature",
      "id": "node/5035367359",
      "properties": {
        "timestamp": "2020-08-21T01:54:24Z",
        "version": 2,
        "changeset": 89716587,
        "height": "10",
        "name": "Cachoeira da Coca",
        "waterway": "waterfall",
        "id": "node/5035367359"
      },
      "geometry": {
        "type": "Point",
        "coordinates": [
          -46.2947313,
          -20.6026162
        ]
      }
    },
    {
      "type": "Feature",
      "id": "node/7100293885",
      "properties": {
        "timestamp": "2020-01-01T22:31:32Z",
        "version": 1,
        "changeset": 79093192,
        "name": "Pé da Serra",
        "waterway": "waterfall",
        "id": "node/7100293885"
      },
      "geometry": {
        "type": "Point",
        "coordinates": [
          -46.3256512,
          -20.6221529
        ]
      }
    },
    {
      "type": "Feature",
      "id": "node/7204579095",
      "properties": {
        "timestamp": "2020-02-20T13:11:12Z",
        "version": 2,
        "changeset": 81273669,
        "name": "Cachoeira do Fumal",
        "source": "Prefeitura de São João Batista do Glória",
        "waterway": "waterfall",
        "id": "node/7204579095"
      },
      "geometry": {
        "type": "Point",
        "coordinates": [
          -46.391235,
          -20.5464854
        ]
      }
    }
  ]
}
