{
  "type": "FeatureCollection",
  "features": [
    {
      "type": "Feature",
      "id": "node/5270114852",
      "properties": {
        "timestamp": "2017-12-07T14:40:20Z",
        "version": 1,
        "changeset": 54433507,
        "historic": "monument",
        "name": "Alexandre da Amália",
        "id": "node/5270114852"
      },
      "geometry": {
        "type": "Point",
        "coordinates": [
          -47.3691328,
          -21.489777
        ]
      }
    },
    {
      "type": "Feature",
      "id": "node/5270122773",
      "properties": {
        "timestamp": "2017-12-07T14:39:05Z",
        "version": 1,
        "changeset": 54433476,
        "historic": "monument",
        "name": "Conde Francisco Matarazzo",
        "id": "node/5270122773"
      },
      "geometry": {
        "type": "Point",
        "coordinates": [
          -47.3684825,
          -21.4892028
        ]
      }
    },
    {
      "type": "Feature",
      "id": "node/5270127884",
      "properties": {
        "timestamp": "2017-12-07T14:41:32Z",
        "version": 1,
        "changeset": 54433538,
        "historic": "monument",
        "name": "Monumento Rotaract Brasil",
        "id": "node/5270127884"
      },
      "geometry": {
        "type": "Point",
        "coordinates": [
          -47.3698491,
          -21.4906987
        ]
      }
    },
    {
      "type": "Feature",
      "id": "node/5270128626",
      "properties": {
        "timestamp": "2017-12-07T14:42:12Z",
        "version": 1,
        "changeset": 54433555,
        "historic": "monument",
        "name": "Rotary Santa Rosa",
        "id": "node/5270128626"
      },
      "geometry": {
        "type": "Point",
        "coordinates": [
          -47.3703082,
          -21.490845
        ]
      }
    },
    {
      "type": "Feature",
      "id": "node/5270131078",
      "properties": {
        "timestamp": "2019-05-30T19:39:39Z",
        "version": 2,
        "changeset": 70784499,
        "highway": "bus_stop",
        "historic": "monument",
        "inscription": "Trabalhador incansável, que enxergava além do seu tempo, homenagem da família ao povo de Santa Rosa.",
        "name": "Busto Sr Sidney Angelo Frigo",
        "id": "node/5270131078"
      },
      "geometry": {
        "type": "Point",
        "coordinates": [
          -47.3603545,
          -21.4844575
        ]
      }
    },
    {
      "type": "Feature",
      "id": "node/5270134001",
      "properties": {
        "timestamp": "2017-12-07T14:46:50Z",
        "version": 1,
        "changeset": 54433669,
        "historic": "monument",
        "name": "Estátua de São Vicente de Paula",
        "id": "node/5270134001"
      },
      "geometry": {
        "type": "Point",
        "coordinates": [
          -47.3643935,
          -21.4760612
        ]
      }
    },
    {
      "type": "Feature",
      "id": "node/5270135275",
      "properties": {
        "timestamp": "2017-12-07T14:47:39Z",
        "version": 1,
        "changeset": 54433692,
        "historic": "monument",
        "name": "Homenagem aos 100 anos da Paróquia Santa Rosa de Viterbo",
        "id": "node/5270135275"
      },
      "geometry": {
        "type": "Point",
        "coordinates": [
          -47.3622313,
          -21.4763132
        ]
      }
    },
    {
      "type": "Feature",
      "id": "node/5270135283",
      "properties": {
        "timestamp": "2017-12-07T14:48:33Z",
        "version": 1,
        "changeset": 54433709,
        "historic": "monument",
        "name": "Alexandre Da Amália",
        "id": "node/5270135283"
      },
      "geometry": {
        "type": "Point",
        "coordinates": [
          -47.3618,
          -21.4767209
        ]
      }
    },
    {
      "type": "Feature",
      "id": "node/5270135614",
      "properties": {
        "timestamp": "2017-12-22T14:17:13Z",
        "version": 2,
        "changeset": 54842370,
        "historic": "monument",
        "inscription": "Um leão lutando contra uma cobra",
        "name": "Leões de Amália",
        "id": "node/5270135614"
      },
      "geometry": {
        "type": "Point",
        "coordinates": [
          -47.3606793,
          -21.4763424
        ]
      }
    },
    {
      "type": "Feature",
      "id": "node/5270141271",
      "properties": {
        "timestamp": "2017-12-07T14:50:07Z",
        "version": 1,
        "changeset": 54433750,
        "historic": "monument",
        "name": "Maria Pia",
        "id": "node/5270141271"
      },
      "geometry": {
        "type": "Point",
        "coordinates": [
          -47.3608058,
          -21.4765244
        ]
      }
    },
    {
      "type": "Feature",
      "id": "node/5270141520",
      "properties": {
        "timestamp": "2017-12-07T14:54:37Z",
        "version": 1,
        "changeset": 54433850,
        "historic": "monument",
        "name": "Estátua de Cristo",
        "id": "node/5270141520"
      },
      "geometry": {
        "type": "Point",
        "coordinates": [
          -47.3821645,
          -21.4919912
        ]
      }
    },
    {
      "type": "Feature",
      "id": "node/5270145112",
      "properties": {
        "timestamp": "2017-12-14T14:52:50Z",
        "version": 2,
        "changeset": 54626425,
        "historic": "monument",
        "inscription": "Escultura em homenagem ao rio pardo, um lindo dourado esculpido a mão em uma unica pedra.",
        "name": "Dourado",
        "id": "node/5270145112"
      },
      "geometry": {
        "type": "Point",
        "coordinates": [
          -47.3629174,
          -21.4811637
        ]
      }
    },
    {
      "type": "Feature",
      "id": "node/5270149346",
      "properties": {
        "timestamp": "2017-12-07T14:52:24Z",
        "version": 1,
        "changeset": 54433806,
        "historic": "monument",
        "name": "Estátua de Cristo",
        "id": "node/5270149346"
      },
      "geometry": {
        "type": "Point",
        "coordinates": [
          -47.369593,
          -21.470914
        ]
      }
    },
    {
      "type": "Feature",
      "id": "node/5270149513",
      "properties": {
        "timestamp": "2018-01-03T18:39:41Z",
        "version": 3,
        "changeset": 55136537,
        "historic": "monument",
        "name": "Cruzeiro",
        "id": "node/5270149513"
      },
      "geometry": {
        "type": "Point",
        "coordinates": [
          -47.3701753,
          -21.472056
        ]
      }
    },
    {
      "type": "Feature",
      "id": "node/5270155646",
      "properties": {
        "timestamp": "2017-12-07T14:57:33Z",
        "version": 1,
        "changeset": 54433909,
        "historic": "monument",
        "name": "Estátua de Nossa Senhora de Aparecida",
        "id": "node/5270155646"
      },
      "geometry": {
        "type": "Point",
        "coordinates": [
          -47.3684663,
          -21.525311
        ]
      }
    },
    {
      "type": "Feature",
      "id": "node/5284066872",
      "properties": {
        "timestamp": "2017-12-14T14:27:05Z",
        "version": 1,
        "changeset": 54625746,
        "historic": "monument",
        "inscription": "Inaugurado em 14 de junho de 2003 pelo prefeito Luis Fernando Gasperini",
        "name": "Praça Concilia Cipriane Titarelli",
        "id": "node/5284066872"
      },
      "geometry": {
        "type": "Point",
        "coordinates": [
          -47.3604454,
          -21.4802998
        ]
      }
    },
    {
      "type": "Feature",
      "id": "node/5284069912",
      "properties": {
        "timestamp": "2018-02-01T22:33:55Z",
        "version": 2,
        "changeset": 55979919,
        "historic": "monument",
        "inscription": "Examinai as escrituras porque julgais ter nelas à vida e são elas mesmas que testificam de mim.",
        "name": "Monumento a Bíblia",
        "id": "node/5284069912"
      },
      "geometry": {
        "type": "Point",
        "coordinates": [
          -47.3622569,
          -21.4823661
        ]
      }
    },
    {
      "type": "Feature",
      "id": "node/5284077984",
      "properties": {
        "timestamp": "2017-12-14T14:33:36Z",
        "version": 1,
        "changeset": 54625923,
        "historic": "monument",
        "inscription": "Administração Francisco Antonio da Silva, 29/03/1975",
        "name": "Praça Mariana Honorata das Dores",
        "id": "node/5284077984"
      },
      "geometry": {
        "type": "Point",
        "coordinates": [
          -47.3659771,
          -21.4874832
        ]
      }
    },
    {
      "type": "Feature",
      "id": "node/5299382055",
      "properties": {
        "timestamp": "2017-12-22T14:02:53Z",
        "version": 1,
        "changeset": 54842083,
        "historic": "monument",
        "name": "Ciclovia dos Ypês",
        "id": "node/5299382055"
      },
      "geometry": {
        "type": "Point",
        "coordinates": [
          -47.371026,
          -21.4914807
        ]
      }
    },
    {
      "type": "Feature",
      "id": "node/5299388231",
      "properties": {
        "timestamp": "2017-12-22T14:07:34Z",
        "version": 1,
        "changeset": 54842178,
        "historic": "monument",
        "name": "Rodovia - Ligando Santa Rosa a Fazenda Amália",
        "id": "node/5299388231"
      },
      "geometry": {
        "type": "Point",
        "coordinates": [
          -47.3593788,
          -21.4841015
        ]
      }
    },
    {
      "type": "Feature",
      "id": "node/5299398296",
      "properties": {
        "timestamp": "2017-12-22T14:16:51Z",
        "version": 1,
        "changeset": 54842362,
        "historic": "monument",
        "inscription": "Um leão lutando contra um jacaré",
        "name": "Leões de Amália",
        "id": "node/5299398296"
      },
      "geometry": {
        "type": "Point",
        "coordinates": [
          -47.3606513,
          -21.4764184
        ]
      }
    },
    {
      "type": "Feature",
      "id": "node/5299405331",
      "properties": {
        "timestamp": "2017-12-22T14:21:25Z",
        "version": 1,
        "changeset": 54842463,
        "historic": "monument",
        "inscription": "\"Um jardim repleto de crianças não se faz questão de exibir suas belas flores\" 29/03/1975",
        "name": "Praça Santo Antônio",
        "id": "node/5299405331"
      },
      "geometry": {
        "type": "Point",
        "coordinates": [
          -47.3627755,
          -21.4735568
        ]
      }
    },
    {
      "type": "Feature",
      "id": "node/5299409855",
      "properties": {
        "timestamp": "2017-12-22T14:26:30Z",
        "version": 1,
        "changeset": 54842580,
        "historic": "monument",
        "name": "Inauguração do Parquinho",
        "id": "node/5299409855"
      },
      "geometry": {
        "type": "Point",
        "coordinates": [
          -47.3608193,
          -21.4827842
        ]
      }
    },
    {
      "type": "Feature",
      "id": "node/5299423605",
      "properties": {
        "timestamp": "2017-12-22T14:38:19Z",
        "version": 1,
        "changeset": 54842808,
        "historic": "monument",
        "name": "Cruz",
        "id": "node/5299423605"
      },
      "geometry": {
        "type": "Point",
        "coordinates": [
          -47.3685251,
          -21.5253968
        ]
      }
    },
    {
      "type": "Feature",
      "id": "node/5620471671",
      "properties": {
        "timestamp": "2018-05-15T19:26:36Z",
        "version": 1,
        "changeset": 58995695,
        "historic": "monument",
        "name": "Monumento em homenagem a uma grande árvore",
        "id": "node/5620471671"
      },
      "geometry": {
        "type": "Point",
        "coordinates": [
          -47.3717765,
          -21.4750847
        ]
      }
    }
  ]
}
