{
  "type": "FeatureCollection",
  "features": [
    {
      "type": "Feature",
      "id": "node/3913381494",
      "properties": {
        "timestamp": "2015-12-27T21:04:49Z",
        "version": 1,
        "changeset": 36205808,
        "name": "Cachoeira Três Bacias",
        "source": "survey",
        "tourism": "attraction",
        "waterway": "waterfall",
        "id": "node/3913381494"
      },
      "geometry": {
        "type": "Point",
        "coordinates": [
          -44.5509462,
          -22.4095068
        ]
      }
    },
    {
      "type": "Feature",
      "id": "node/3913381495",
      "properties": {
        "timestamp": "2015-12-27T21:04:50Z",
        "version": 1,
        "changeset": 36205808,
        "name": "Poço das Esmeraldas",
        "source": "survey",
        "tourism": "attraction",
        "waterway": "waterfall",
        "id": "node/3913381495"
      },
      "geometry": {
        "type": "Point",
        "coordinates": [
          -44.5507723,
          -22.4103796
        ]
      }
    },
    {
      "type": "Feature",
      "id": "node/6629683783",
      "properties": {
        "timestamp": "2019-07-18T20:05:00Z",
        "version": 1,
        "changeset": 72405359,
        "name": "Cachoeira das Flores",
        "waterway": "waterfall",
        "id": "node/6629683783"
      },
      "geometry": {
        "type": "Point",
        "coordinates": [
          -44.6754286,
          -22.3872295
        ]
      }
    },
    {
      "type": "Feature",
      "id": "node/7221323616",
      "properties": {
        "timestamp": "2020-02-17T22:26:28Z",
        "version": 1,
        "changeset": 81138839,
        "name": "Poço do Céu",
        "waterway": "waterfall",
        "id": "node/7221323616"
      },
      "geometry": {
        "type": "Point",
        "coordinates": [
          -44.5744344,
          -22.384597
        ]
      }
    },
    {
      "type": "Feature",
      "id": "node/7221323625",
      "properties": {
        "timestamp": "2020-02-17T22:26:28Z",
        "version": 1,
        "changeset": 81138839,
        "name": "Poço do Dinossauro",
        "waterway": "waterfall",
        "id": "node/7221323625"
      },
      "geometry": {
        "type": "Point",
        "coordinates": [
          -44.5734527,
          -22.3848732
        ]
      }
    },
    {
      "type": "Feature",
      "id": "node/7221323630",
      "properties": {
        "timestamp": "2020-02-17T22:26:28Z",
        "version": 1,
        "changeset": 81138839,
        "name": "Poço da Turmalina",
        "waterway": "waterfall",
        "id": "node/7221323630"
      },
      "geometry": {
        "type": "Point",
        "coordinates": [
          -44.572883,
          -22.385088
        ]
      }
    },
    {
      "type": "Feature",
      "id": "node/8244055497",
      "properties": {
        "timestamp": "2021-04-30T06:29:50Z",
        "version": 2,
        "changeset": 103886537,
        "name": "Cachoeira da Fumaça",
        "waterway": "waterfall",
        "wikidata": "Q22068859",
        "id": "node/8244055497"
      },
      "geometry": {
        "type": "Point",
        "coordinates": [
          -44.3342302,
          -22.2571944
        ]
      }
    },
    {
      "type": "Feature",
      "id": "node/8707237217",
      "properties": {
        "timestamp": "2021-05-06T18:29:18Z",
        "version": 1,
        "changeset": 104269498,
        "waterway": "waterfall",
        "id": "node/8707237217"
      },
      "geometry": {
        "type": "Point",
        "coordinates": [
          -44.3336901,
          -22.2572554
        ]
      }
    }
  ]
}
