{
  "type": "FeatureCollection",
  "features": [
    {
      "type": "Feature",
      "id": "way/976710106",
      "properties": {
        "timestamp": "2021-08-26T15:12:56Z",
        "version": 1,
        "changeset": 110294134,
        "amenity": "school",
        "name": "Unidade Integrada Sarney Filho",
        "id": "way/976710106"
      },
      "geometry": {
        "type": "Polygon",
        "coordinates": [
          [
            [
              -45.7539201,
              -2.6275602
            ],
            [
              -45.7538309,
              -2.627922
            ],
            [
              -45.7535294,
              -2.6278479
            ],
            [
              -45.7536185,
              -2.627486
            ],
            [
              -45.7539201,
              -2.6275602
            ]
          ]
        ]
      }
    },
    {
      "type": "Feature",
      "id": "node/9038886606",
      "properties": {
        "timestamp": "2021-08-26T20:14:19Z",
        "version": 1,
        "changeset": 110306399,
        "amenity": "school",
        "name": "Em Emilia Ferreiro",
        "id": "node/9038886606"
      },
      "geometry": {
        "type": "Point",
        "coordinates": [
          -45.7052882,
          -2.8049577
        ]
      }
    },
    {
      "type": "Feature",
      "id": "node/9041307576",
      "properties": {
        "timestamp": "2021-08-27T16:17:58Z",
        "version": 1,
        "changeset": 110350165,
        "amenity": "school",
        "name": "Em Da 3ª Quadra Da B 2",
        "id": "node/9041307576"
      },
      "geometry": {
        "type": "Point",
        "coordinates": [
          -45.841185,
          -2.8512632
        ]
      }
    },
    {
      "type": "Feature",
      "id": "node/9053504759",
      "properties": {
        "timestamp": "2021-09-01T13:13:40Z",
        "version": 1,
        "changeset": 110567589,
        "amenity": "school",
        "name": "Em Do Plano B",
        "id": "node/9053504759"
      },
      "geometry": {
        "type": "Point",
        "coordinates": [
          -45.7999943,
          -2.9163316
        ]
      }
    },
    {
      "type": "Feature",
      "id": "node/9155482411",
      "properties": {
        "timestamp": "2021-10-07T13:48:32Z",
        "version": 1,
        "changeset": 112217973,
        "amenity": "school",
        "name": "Em Da 3ª Quadra Da B-1",
        "id": "node/9155482411"
      },
      "geometry": {
        "type": "Point",
        "coordinates": [
          -45.8378179,
          -2.8978435
        ]
      }
    },
    {
      "type": "Feature",
      "id": "node/9216660116",
      "properties": {
        "timestamp": "2021-11-01T16:54:42Z",
        "version": 1,
        "changeset": 113246243,
        "amenity": "school",
        "name": "Em Da Trancredo Neves",
        "id": "node/9216660116"
      },
      "geometry": {
        "type": "Point",
        "coordinates": [
          -45.8211489,
          -2.9274146
        ]
      }
    },
    {
      "type": "Feature",
      "id": "node/9241524759",
      "properties": {
        "timestamp": "2021-11-10T20:28:22Z",
        "version": 1,
        "changeset": 113625237,
        "amenity": "school",
        "name": "Em Da 5ª Quadra Da B-5",
        "id": "node/9241524759"
      },
      "geometry": {
        "type": "Point",
        "coordinates": [
          -45.9355907,
          -2.7315737
        ]
      }
    },
    {
      "type": "Feature",
      "id": "node/9241564770",
      "properties": {
        "timestamp": "2021-11-10T20:26:56Z",
        "version": 1,
        "changeset": 113625203,
        "amenity": "school",
        "name": "Em Dom Pedro Ii",
        "id": "node/9241564770"
      },
      "geometry": {
        "type": "Point",
        "coordinates": [
          -45.7430054,
          -2.6664121
        ]
      }
    },
    {
      "type": "Feature",
      "id": "node/9241570962",
      "properties": {
        "timestamp": "2021-11-10T20:27:46Z",
        "version": 1,
        "changeset": 113625219,
        "amenity": "school",
        "name": "Em Da 2ª Quadra Da B 4",
        "id": "node/9241570962"
      },
      "geometry": {
        "type": "Point",
        "coordinates": [
          -45.7881041,
          -2.7412642
        ]
      }
    },
    {
      "type": "Feature",
      "id": "node/9241572725",
      "properties": {
        "timestamp": "2021-11-10T20:26:37Z",
        "version": 1,
        "changeset": 113625196,
        "amenity": "school",
        "name": "Creche Municipal Recanto Feliz",
        "id": "node/9241572725"
      },
      "geometry": {
        "type": "Point",
        "coordinates": [
          -45.7535787,
          -2.630265
        ]
      }
    },
    {
      "type": "Feature",
      "id": "node/9241581544",
      "properties": {
        "timestamp": "2021-11-10T20:39:11Z",
        "version": 1,
        "changeset": 113625580,
        "amenity": "school",
        "name": "Em Da 5ª Quadra Da B-6",
        "id": "node/9241581544"
      },
      "geometry": {
        "type": "Point",
        "coordinates": [
          -45.9453135,
          -2.6855793
        ]
      }
    },
    {
      "type": "Feature",
      "id": "node/9241581817",
      "properties": {
        "timestamp": "2021-11-10T20:28:04Z",
        "version": 1,
        "changeset": 113625233,
        "amenity": "school",
        "name": "Em Da 2ª Quadra Da B-5",
        "id": "node/9241581817"
      },
      "geometry": {
        "type": "Point",
        "coordinates": [
          -45.8452781,
          -2.7086908
        ]
      }
    },
    {
      "type": "Feature",
      "id": "node/9325687272",
      "properties": {
        "timestamp": "2021-12-09T23:11:33Z",
        "version": 1,
        "changeset": 114763149,
        "amenity": "school",
        "name": "Em Da Boa Vista",
        "id": "node/9325687272"
      },
      "geometry": {
        "type": "Point",
        "coordinates": [
          -45.6742953,
          -2.9169477
        ]
      }
    },
    {
      "type": "Feature",
      "id": "node/9325718369",
      "properties": {
        "timestamp": "2021-12-09T23:14:13Z",
        "version": 1,
        "changeset": 114763214,
        "amenity": "school",
        "name": "Ce João Paulo I",
        "id": "node/9325718369"
      },
      "geometry": {
        "type": "Point",
        "coordinates": [
          -45.7041402,
          -2.803361
        ]
      }
    },
    {
      "type": "Feature",
      "id": "node/9325733612",
      "properties": {
        "timestamp": "2021-12-09T23:10:45Z",
        "version": 1,
        "changeset": 114763128,
        "amenity": "school",
        "name": "Em Da 2ª Quadra Da B-1",
        "id": "node/9325733612"
      },
      "geometry": {
        "type": "Point",
        "coordinates": [
          -45.7893755,
          -2.8844434
        ]
      }
    },
    {
      "type": "Feature",
      "id": "node/9325741567",
      "properties": {
        "timestamp": "2021-12-09T23:14:48Z",
        "version": 1,
        "changeset": 114763226,
        "amenity": "school",
        "name": "Unidade Escolar Iracy Mendonca Weba",
        "id": "node/9325741567"
      },
      "geometry": {
        "type": "Point",
        "coordinates": [
          -45.6961472,
          -2.7968859
        ]
      }
    },
    {
      "type": "Feature",
      "id": "node/9325745185",
      "properties": {
        "timestamp": "2021-12-09T23:13:42Z",
        "version": 1,
        "changeset": 114763202,
        "amenity": "school",
        "name": "Em Terezinha Leite",
        "id": "node/9325745185"
      },
      "geometry": {
        "type": "Point",
        "coordinates": [
          -45.7034884,
          -2.8066267
        ]
      }
    },
    {
      "type": "Feature",
      "id": "node/9325745737",
      "properties": {
        "timestamp": "2021-12-09T23:12:09Z",
        "version": 1,
        "changeset": 114763159,
        "amenity": "school",
        "name": "Ue José Pereira Amorim",
        "id": "node/9325745737"
      },
      "geometry": {
        "type": "Point",
        "coordinates": [
          -45.7023807,
          -2.8162389
        ]
      }
    },
    {
      "type": "Feature",
      "id": "node/9325750409",
      "properties": {
        "timestamp": "2021-12-09T23:10:26Z",
        "version": 1,
        "changeset": 114763122,
        "amenity": "school",
        "name": "Em Da 4ª Quadra Da B-1",
        "id": "node/9325750409"
      },
      "geometry": {
        "type": "Point",
        "coordinates": [
          -45.8555563,
          -2.9026967
        ]
      }
    },
    {
      "type": "Feature",
      "id": "node/9325753272",
      "properties": {
        "timestamp": "2021-12-09T23:11:52Z",
        "version": 1,
        "changeset": 114763154,
        "amenity": "school",
        "name": "Em Da Quadra I",
        "id": "node/9325753272"
      },
      "geometry": {
        "type": "Point",
        "coordinates": [
          -45.6879531,
          -2.8660667
        ]
      }
    },
    {
      "type": "Feature",
      "id": "node/9325754338",
      "properties": {
        "timestamp": "2021-12-09T23:11:06Z",
        "version": 1,
        "changeset": 114763138,
        "amenity": "school",
        "name": "Em Da Pedreira I",
        "id": "node/9325754338"
      },
      "geometry": {
        "type": "Point",
        "coordinates": [
          -45.8124505,
          -2.9576931
        ]
      }
    },
    {
      "type": "Feature",
      "id": "node/9325754339",
      "properties": {
        "timestamp": "2021-12-09T23:13:08Z",
        "version": 1,
        "changeset": 114763184,
        "amenity": "school",
        "name": "Creche Municipal Pequeno Principe",
        "id": "node/9325754339"
      },
      "geometry": {
        "type": "Point",
        "coordinates": [
          -45.7031237,
          -2.808352
        ]
      }
    },
    {
      "type": "Feature",
      "id": "node/9325756895",
      "properties": {
        "timestamp": "2021-12-09T23:15:27Z",
        "version": 1,
        "changeset": 114763235,
        "amenity": "school",
        "name": "Em Da 5ª Quadra B-4",
        "id": "node/9325756895"
      },
      "geometry": {
        "type": "Point",
        "coordinates": [
          -45.9189583,
          -2.7770208
        ]
      }
    },
    {
      "type": "Feature",
      "id": "node/9325759556",
      "properties": {
        "timestamp": "2021-12-09T23:14:31Z",
        "version": 1,
        "changeset": 114763218,
        "amenity": "school",
        "name": "Ui Desembargador Sarney Costa",
        "id": "node/9325759556"
      },
      "geometry": {
        "type": "Point",
        "coordinates": [
          -45.6968527,
          -2.799731
        ]
      }
    },
    {
      "type": "Feature",
      "id": "node/9325763475",
      "properties": {
        "timestamp": "2021-12-09T23:12:29Z",
        "version": 1,
        "changeset": 114763165,
        "amenity": "school",
        "name": "Creche Municipal Vovo Maria De Sa",
        "id": "node/9325763475"
      },
      "geometry": {
        "type": "Point",
        "coordinates": [
          -45.7068224,
          -2.8117007
        ]
      }
    },
    {
      "type": "Feature",
      "id": "node/9325763476",
      "properties": {
        "timestamp": "2021-12-09T23:12:49Z",
        "version": 1,
        "changeset": 114763171,
        "amenity": "school",
        "name": "Unidade Escolar Princesa Isabel",
        "id": "node/9325763476"
      },
      "geometry": {
        "type": "Point",
        "coordinates": [
          -45.7066508,
          -2.8113685
        ]
      }
    }
  ]
}
