{
  "type": "FeatureCollection",
  "features": [
    {
      "type": "Feature",
      "id": "node/2545896962",
      "properties": {
        "timestamp": "2019-01-22T16:37:12Z",
        "version": 2,
        "changeset": 66543293,
        "name": "Cachoeira Escalção",
        "waterway": "waterfall",
        "id": "node/2545896962"
      },
      "geometry": {
        "type": "Point",
        "coordinates": [
          -52.6886469,
          -0.4833434
        ]
      }
    },
    {
      "type": "Feature",
      "id": "node/5357476595",
      "properties": {
        "timestamp": "2018-01-23T18:59:39Z",
        "version": 1,
        "changeset": 55693497,
        "name": "Cachoeira Santo Antônio do Jari",
        "tourism": "attraction",
        "waterway": "waterfall",
        "id": "node/5357476595"
      },
      "geometry": {
        "type": "Point",
        "coordinates": [
          -52.5073957,
          -0.6446661
        ]
      }
    },
    {
      "type": "Feature",
      "id": "node/5357476596",
      "properties": {
        "timestamp": "2018-01-23T18:59:39Z",
        "version": 1,
        "changeset": 55693497,
        "name": "Cachoeira Santo Antônio do Jari",
        "tourism": "attraction",
        "waterway": "waterfall",
        "id": "node/5357476596"
      },
      "geometry": {
        "type": "Point",
        "coordinates": [
          -52.5079966,
          -0.6440009
        ]
      }
    },
    {
      "type": "Feature",
      "id": "node/5357476597",
      "properties": {
        "timestamp": "2018-01-23T18:59:39Z",
        "version": 1,
        "changeset": 55693497,
        "name": "Cachoeira Santo Antônio do Jari",
        "tourism": "attraction",
        "waterway": "waterfall",
        "id": "node/5357476597"
      },
      "geometry": {
        "type": "Point",
        "coordinates": [
          -52.5085276,
          -0.6430944
        ]
      }
    },
    {
      "type": "Feature",
      "id": "node/6227636268",
      "properties": {
        "timestamp": "2019-01-22T17:12:12Z",
        "version": 2,
        "changeset": 66544277,
        "name": "Corredeira Aurora",
        "waterway": "waterfall",
        "id": "node/6227636268"
      },
      "geometry": {
        "type": "Point",
        "coordinates": [
          -52.7936626,
          -0.2099414
        ]
      }
    },
    {
      "type": "Feature",
      "id": "node/6231383425",
      "properties": {
        "timestamp": "2019-01-24T00:45:26Z",
        "version": 1,
        "changeset": 66584915,
        "name": "Cachoeira Urucupatá",
        "waterway": "waterfall",
        "id": "node/6231383425"
      },
      "geometry": {
        "type": "Point",
        "coordinates": [
          -53.1453216,
          0.5580409
        ]
      }
    },
    {
      "type": "Feature",
      "id": "node/6233157135",
      "properties": {
        "timestamp": "2019-01-24T14:45:23Z",
        "version": 1,
        "changeset": 66604064,
        "name": "Corredeira Cumaru",
        "waterway": "waterfall",
        "id": "node/6233157135"
      },
      "geometry": {
        "type": "Point",
        "coordinates": [
          -52.6775873,
          -0.4138076
        ]
      }
    }
  ]
}
