{
  "type": "FeatureCollection",
  "features": [
    {
      "type": "Feature",
      "id": "node/2720038508",
      "properties": {
        "timestamp": "2018-12-31T19:37:19Z",
        "version": 4,
        "changeset": 65920383,
        "addr:street": "Campus Histórico da UFLA",
        "amenity": "restaurant",
        "cuisine": "regional",
        "name": "Alvadora Hotel UFLA",
        "tourism": "hotel",
        "id": "node/2720038508"
      },
      "geometry": {
        "type": "Point",
        "coordinates": [
          -44.9931684,
          -21.2335348
        ]
      }
    },
    {
      "type": "Feature",
      "id": "node/2720038512",
      "properties": {
        "timestamp": "2014-03-15T23:29:10Z",
        "version": 1,
        "changeset": 21125410,
        "name": "Hotel Alvorada",
        "source": "CAmpus Histórico da UFLA",
        "tourism": "hotel",
        "id": "node/2720038512"
      },
      "geometry": {
        "type": "Point",
        "coordinates": [
          -44.9931604,
          -21.2332673
        ]
      }
    },
    {
      "type": "Feature",
      "id": "node/3709870967",
      "properties": {
        "timestamp": "2022-01-12T14:00:02Z",
        "version": 2,
        "changeset": 116068366,
        "addr:city": "Lavras",
        "addr:housenumber": "379",
        "addr:postcode": "37200-000",
        "addr:street": "Rua Comendador José Esteves",
        "addr:suburb": "centro",
        "name": "Tropical Palace Hotel",
        "phone": "+55 35 3821 8868",
        "tourism": "hotel",
        "website": "http://www.tropicalpalace.com.br/",
        "id": "node/3709870967"
      },
      "geometry": {
        "type": "Point",
        "coordinates": [
          -44.9971356,
          -21.2373007
        ]
      }
    },
    {
      "type": "Feature",
      "id": "node/4255255037",
      "properties": {
        "timestamp": "2016-06-20T21:35:43Z",
        "version": 1,
        "changeset": 40167977,
        "name": "Hotel Vitória",
        "tourism": "hotel",
        "id": "node/4255255037"
      },
      "geometry": {
        "type": "Point",
        "coordinates": [
          -44.9993131,
          -21.2419426
        ]
      }
    },
    {
      "type": "Feature",
      "id": "node/4255255038",
      "properties": {
        "timestamp": "2016-06-20T21:35:43Z",
        "version": 1,
        "changeset": 40167977,
        "name": "Hotel Serema",
        "tourism": "hotel",
        "id": "node/4255255038"
      },
      "geometry": {
        "type": "Point",
        "coordinates": [
          -44.9994418,
          -21.2414726
        ]
      }
    },
    {
      "type": "Feature",
      "id": "node/4255255039",
      "properties": {
        "timestamp": "2016-06-20T21:35:43Z",
        "version": 1,
        "changeset": 40167977,
        "name": "Hotel Cama e Café",
        "tourism": "hotel",
        "id": "node/4255255039"
      },
      "geometry": {
        "type": "Point",
        "coordinates": [
          -45.0001284,
          -21.2499323
        ]
      }
    },
    {
      "type": "Feature",
      "id": "node/4327355571",
      "properties": {
        "timestamp": "2016-07-30T19:54:52Z",
        "version": 2,
        "changeset": 41133146,
        "name": "Mazza Hotel",
        "tourism": "hotel",
        "id": "node/4327355571"
      },
      "geometry": {
        "type": "Point",
        "coordinates": [
          -45.0029695,
          -21.24905
        ]
      }
    },
    {
      "type": "Feature",
      "id": "node/4327355572",
      "properties": {
        "timestamp": "2016-07-29T21:00:42Z",
        "version": 1,
        "changeset": 41118319,
        "name": "Hotel Pinguim",
        "tourism": "hotel",
        "id": "node/4327355572"
      },
      "geometry": {
        "type": "Point",
        "coordinates": [
          -45.0021461,
          -21.2476101
        ]
      }
    },
    {
      "type": "Feature",
      "id": "node/4327370508",
      "properties": {
        "timestamp": "2016-08-19T01:24:27Z",
        "version": 2,
        "changeset": 41546916,
        "name": "Hotel Ipê",
        "tourism": "hotel",
        "id": "node/4327370508"
      },
      "geometry": {
        "type": "Point",
        "coordinates": [
          -45.0060568,
          -21.2535272
        ]
      }
    },
    {
      "type": "Feature",
      "id": "node/4356739621",
      "properties": {
        "timestamp": "2016-08-19T01:24:26Z",
        "version": 1,
        "changeset": 41546916,
        "name": "Pousada dos Viajantes",
        "tourism": "hotel",
        "id": "node/4356739621"
      },
      "geometry": {
        "type": "Point",
        "coordinates": [
          -45.0023709,
          -21.2460679
        ]
      }
    },
    {
      "type": "Feature",
      "id": "node/4420251440",
      "properties": {
        "timestamp": "2016-09-27T11:27:50Z",
        "version": 1,
        "changeset": 42468107,
        "tourism": "hotel",
        "id": "node/4420251440"
      },
      "geometry": {
        "type": "Point",
        "coordinates": [
          -44.997691,
          -21.2425977
        ]
      }
    },
    {
      "type": "Feature",
      "id": "node/10199674012",
      "properties": {
        "timestamp": "2022-11-18T14:16:55Z",
        "version": 1,
        "changeset": 129089028,
        "tourism": "hotel",
        "id": "node/10199674012"
      },
      "geometry": {
        "type": "Point",
        "coordinates": [
          -45.0079808,
          -21.2399459
        ]
      }
    }
  ]
}
