{
  "type": "FeatureCollection",
  "features": [
    {
      "type": "Feature",
      "id": "node/12075261652",
      "properties": {
        "timestamp": "2024-07-26T13:41:32Z",
        "version": 2,
        "changeset": 154443810,
        "government": "prosecutor",
        "name": "Secretaria Municipal de Assistência Social",
        "office": "government",
        "id": "node/12075261652"
      },
      "geometry": {
        "type": "Point",
        "coordinates": [
          -54.2489047,
          -25.0921331
        ]
      }
    },
    {
      "type": "Feature",
      "id": "node/12075302886",
      "properties": {
        "timestamp": "2024-07-26T13:41:32Z",
        "version": 1,
        "changeset": 154443810,
        "government": "register_office",
        "name": "Cartório Missal",
        "office": "government",
        "id": "node/12075302886"
      },
      "geometry": {
        "type": "Point",
        "coordinates": [
          -54.2469928,
          -25.0932355
        ]
      }
    },
    {
      "type": "Feature",
      "id": "node/12075666746",
      "properties": {
        "timestamp": "2024-07-26T17:26:37Z",
        "version": 1,
        "changeset": 154453782,
        "government": "prosecutor",
        "name": "Associação dos Servidores Públicos",
        "office": "government",
        "id": "node/12075666746"
      },
      "geometry": {
        "type": "Point",
        "coordinates": [
          -54.2439715,
          -25.0947159
        ]
      }
    },
    {
      "type": "Feature",
      "id": "node/12075666758",
      "properties": {
        "timestamp": "2024-07-26T17:26:37Z",
        "version": 1,
        "changeset": 154453782,
        "government": "prosecutor",
        "name": "CRAS - Casa das Famílias",
        "office": "government",
        "id": "node/12075666758"
      },
      "geometry": {
        "type": "Point",
        "coordinates": [
          -54.2495708,
          -25.0926902
        ]
      }
    },
    {
      "type": "Feature",
      "id": "node/12075696285",
      "properties": {
        "timestamp": "2024-07-26T17:47:06Z",
        "version": 1,
        "changeset": 154454436,
        "government": "prosecutor",
        "name": "Agência do Trabalhador Missal",
        "office": "government",
        "id": "node/12075696285"
      },
      "geometry": {
        "type": "Point",
        "coordinates": [
          -54.2507015,
          -25.0898594
        ]
      }
    }
  ]
}
