{
  "type": "FeatureCollection",
  "features": [
    {
      "type": "Feature",
      "id": "node/11291646309",
      "properties": {
        "timestamp": "2024-07-26T14:19:00Z",
        "version": 2,
        "changeset": 154445511,
        "amenity": "pharmacy",
        "healthcare": "pharmacy",
        "name": "Farmácia Barth",
        "id": "node/11291646309"
      },
      "geometry": {
        "type": "Point",
        "coordinates": [
          -54.2432169,
          -25.0930575
        ]
      }
    },
    {
      "type": "Feature",
      "id": "node/11291646345",
      "properties": {
        "timestamp": "2023-10-26T18:07:56Z",
        "version": 1,
        "changeset": 143174673,
        "amenity": "pharmacy",
        "healthcare": "pharmacy",
        "name": "Farmabella",
        "id": "node/11291646345"
      },
      "geometry": {
        "type": "Point",
        "coordinates": [
          -54.2464326,
          -25.0920097
        ]
      }
    },
    {
      "type": "Feature",
      "id": "node/11291646346",
      "properties": {
        "timestamp": "2024-07-26T17:47:06Z",
        "version": 2,
        "changeset": 154454436,
        "amenity": "pharmacy",
        "healthcare": "pharmacy",
        "name": "Farmácia Ideal",
        "id": "node/11291646346"
      },
      "geometry": {
        "type": "Point",
        "coordinates": [
          -54.2466121,
          -25.0916579
        ]
      }
    },
    {
      "type": "Feature",
      "id": "node/11291646669",
      "properties": {
        "timestamp": "2024-07-26T13:41:32Z",
        "version": 2,
        "changeset": 154443810,
        "amenity": "pharmacy",
        "healthcare": "pharmacy",
        "name": "Farmácia Preço Justo",
        "id": "node/11291646669"
      },
      "geometry": {
        "type": "Point",
        "coordinates": [
          -54.2469192,
          -25.0929641
        ]
      }
    },
    {
      "type": "Feature",
      "id": "node/11291646671",
      "properties": {
        "timestamp": "2023-10-26T18:07:56Z",
        "version": 1,
        "changeset": 143174673,
        "amenity": "pharmacy",
        "brand": "Farmácia São João",
        "brand:wikidata": "Q65164556",
        "healthcare": "pharmacy",
        "name": "Farmácia São João",
        "id": "node/11291646671"
      },
      "geometry": {
        "type": "Point",
        "coordinates": [
          -54.2465976,
          -25.0930796
        ]
      }
    },
    {
      "type": "Feature",
      "id": "node/11291646672",
      "properties": {
        "timestamp": "2023-10-26T18:07:56Z",
        "version": 1,
        "changeset": 143174673,
        "amenity": "pharmacy",
        "healthcare": "pharmacy",
        "name": "Farmácia Santa Lúcia",
        "id": "node/11291646672"
      },
      "geometry": {
        "type": "Point",
        "coordinates": [
          -54.2471999,
          -25.0935014
        ]
      }
    }
  ]
}
