{
  "type": "FeatureCollection",
  "features": [
    {
      "type": "Feature",
      "id": "node/2153829460",
      "properties": {
        "timestamp": "2015-10-25T13:33:30Z",
        "version": 3,
        "changeset": 34859507,
        "name": "SESC - Triunfo/PE",
        "tourism": "hotel",
        "id": "node/2153829460"
      },
      "geometry": {
        "type": "Point",
        "coordinates": [
          -38.1083405,
          -7.8404043
        ]
      }
    },
    {
      "type": "Feature",
      "id": "node/3802091517",
      "properties": {
        "timestamp": "2015-10-25T13:33:29Z",
        "version": 1,
        "changeset": 34859507,
        "name": "Pousada Baixa Verde",
        "tourism": "hotel",
        "id": "node/3802091517"
      },
      "geometry": {
        "type": "Point",
        "coordinates": [
          -38.1018066,
          -7.8366599
        ]
      }
    },
    {
      "type": "Feature",
      "id": "node/3802091518",
      "properties": {
        "timestamp": "2015-10-25T13:33:29Z",
        "version": 1,
        "changeset": 34859507,
        "name": "Pousada Opção",
        "tourism": "hotel",
        "id": "node/3802091518"
      },
      "geometry": {
        "type": "Point",
        "coordinates": [
          -38.1027833,
          -7.8367698
        ]
      }
    },
    {
      "type": "Feature",
      "id": "node/3802091521",
      "properties": {
        "timestamp": "2015-10-25T13:33:29Z",
        "version": 1,
        "changeset": 34859507,
        "name": "Pousada Alpes",
        "tourism": "hotel",
        "id": "node/3802091521"
      },
      "geometry": {
        "type": "Point",
        "coordinates": [
          -38.1070572,
          -7.8347685
        ]
      }
    },
    {
      "type": "Feature",
      "id": "node/3802091522",
      "properties": {
        "timestamp": "2015-10-25T13:33:29Z",
        "version": 1,
        "changeset": 34859507,
        "name": "Pousada Solar de Triunfo",
        "tourism": "hotel",
        "id": "node/3802091522"
      },
      "geometry": {
        "type": "Point",
        "coordinates": [
          -38.1069297,
          -7.8348807
        ]
      }
    },
    {
      "type": "Feature",
      "id": "node/3802121885",
      "properties": {
        "timestamp": "2015-10-25T14:06:49Z",
        "version": 1,
        "changeset": 34860056,
        "name": "Hotel e Restaurante Portal Triunfo",
        "tourism": "hotel",
        "id": "node/3802121885"
      },
      "geometry": {
        "type": "Point",
        "coordinates": [
          -38.1033002,
          -7.8388652
        ]
      }
    },
    {
      "type": "Feature",
      "id": "node/3935835728",
      "properties": {
        "timestamp": "2023-09-30T15:56:40Z",
        "version": 3,
        "changeset": 141957617,
        "bar": "no",
        "breakfast": "Mo-Su 06:00-09:00",
        "check_date": "2023-02-19",
        "internet_access": "wlan",
        "internet_access:fee": "customers",
        "name": "Pousada Café do Brejo",
        "payment:cash": "yes",
        "payment:coins": "yes",
        "payment:credit_cards": "yes",
        "phone": "+55 87 99910-3966",
        "smoking": "no",
        "tourism": "hotel",
        "website": "https://www.cafedobrejo.com.br/",
        "id": "node/3935835728"
      },
      "geometry": {
        "type": "Point",
        "coordinates": [
          -38.1120796,
          -7.8288211
        ]
      }
    },
    {
      "type": "Feature",
      "id": "node/4279008749",
      "properties": {
        "timestamp": "2016-07-02T21:07:00Z",
        "version": 1,
        "changeset": 40448050,
        "name": "Hotel Otellin Triumph",
        "tourism": "hotel",
        "id": "node/4279008749"
      },
      "geometry": {
        "type": "Point",
        "coordinates": [
          -38.1071281,
          -7.8330153
        ]
      }
    },
    {
      "type": "Feature",
      "id": "node/4279008750",
      "properties": {
        "timestamp": "2016-07-02T21:07:00Z",
        "version": 1,
        "changeset": 40448050,
        "name": "Lar Santa Elisabeth",
        "tourism": "hotel",
        "id": "node/4279008750"
      },
      "geometry": {
        "type": "Point",
        "coordinates": [
          -38.1041041,
          -7.8341933
        ]
      }
    },
    {
      "type": "Feature",
      "id": "node/4279008751",
      "properties": {
        "timestamp": "2016-07-02T21:07:00Z",
        "version": 1,
        "changeset": 40448050,
        "name": "Pousada Bom Jesus",
        "tourism": "hotel",
        "id": "node/4279008751"
      },
      "geometry": {
        "type": "Point",
        "coordinates": [
          -38.109634,
          -7.8298249
        ]
      }
    },
    {
      "type": "Feature",
      "id": "node/4279008752",
      "properties": {
        "timestamp": "2016-07-02T21:07:00Z",
        "version": 1,
        "changeset": 40448050,
        "name": "Pousada Calugi",
        "tourism": "hotel",
        "id": "node/4279008752"
      },
      "geometry": {
        "type": "Point",
        "coordinates": [
          -38.108649,
          -7.8293597
        ]
      }
    },
    {
      "type": "Feature",
      "id": "node/4279008753",
      "properties": {
        "timestamp": "2016-07-02T21:07:00Z",
        "version": 1,
        "changeset": 40448050,
        "name": "Pousada Certri",
        "tourism": "hotel",
        "id": "node/4279008753"
      },
      "geometry": {
        "type": "Point",
        "coordinates": [
          -38.1014349,
          -7.8384657
        ]
      }
    },
    {
      "type": "Feature",
      "id": "node/4279008754",
      "properties": {
        "timestamp": "2016-07-02T21:07:00Z",
        "version": 1,
        "changeset": 40448050,
        "name": "Pousada Panorâmica",
        "tourism": "hotel",
        "id": "node/4279008754"
      },
      "geometry": {
        "type": "Point",
        "coordinates": [
          -38.1053086,
          -7.8382205
        ]
      }
    },
    {
      "type": "Feature",
      "id": "node/4406638494",
      "properties": {
        "timestamp": "2016-09-18T10:20:35Z",
        "version": 1,
        "changeset": 42243828,
        "alt_name": "Convento São Boaventura",
        "name": "Hospedaria Recanto Franciscano",
        "tourism": "hotel",
        "id": "node/4406638494"
      },
      "geometry": {
        "type": "Point",
        "coordinates": [
          -38.103666,
          -7.8339884
        ]
      }
    },
    {
      "type": "Feature",
      "id": "node/4406638495",
      "properties": {
        "timestamp": "2017-09-17T16:18:54Z",
        "version": 2,
        "changeset": 52121172,
        "name": "Pousada Mirante dos Jatobás",
        "tourism": "hotel",
        "id": "node/4406638495"
      },
      "geometry": {
        "type": "Point",
        "coordinates": [
          -38.1007095,
          -7.8406975
        ]
      }
    },
    {
      "type": "Feature",
      "id": "node/4406638496",
      "properties": {
        "timestamp": "2016-09-18T10:20:35Z",
        "version": 1,
        "changeset": 42243828,
        "name": "Pousada Palhoção",
        "tourism": "hotel",
        "id": "node/4406638496"
      },
      "geometry": {
        "type": "Point",
        "coordinates": [
          -38.1064813,
          -7.8339907
        ]
      }
    },
    {
      "type": "Feature",
      "id": "node/10740124932",
      "properties": {
        "timestamp": "2023-03-16T22:00:41Z",
        "version": 1,
        "changeset": 133766879,
        "name": "Pousada Encontro Das Águas",
        "tourism": "hotel",
        "id": "node/10740124932"
      },
      "geometry": {
        "type": "Point",
        "coordinates": [
          -38.0948021,
          -7.8430566
        ]
      }
    }
  ]
}
