{
  "type": "FeatureCollection",
  "features": [
    {
      "type": "Feature",
      "id": "node/7314208947",
      "properties": {
        "timestamp": "2020-03-25T02:36:42Z",
        "version": 2,
        "changeset": 82594635,
        "addr:city": "Armação dos Búzios",
        "addr:street": "Rua dos Pescadores",
        "addr:suburb": "Manguinhos",
        "amenity": "dentist",
        "healthcare": "dentist",
        "name": "MGM Odontologia",
        "phone": "+55 22 26236397",
        "id": "node/7314208947"
      },
      "geometry": {
        "type": "Point",
        "coordinates": [
          -41.9142539,
          -22.7728002
        ]
      }
    },
    {
      "type": "Feature",
      "id": "node/7314208949",
      "properties": {
        "timestamp": "2020-03-21T02:30:10Z",
        "version": 1,
        "changeset": 82451116,
        "amenity": "dentist",
        "healthcare": "dentist",
        "id": "node/7314208949"
      },
      "geometry": {
        "type": "Point",
        "coordinates": [
          -41.9129888,
          -22.7716824
        ]
      }
    },
    {
      "type": "Feature",
      "id": "node/7353054108",
      "properties": {
        "timestamp": "2020-04-01T02:48:04Z",
        "version": 1,
        "changeset": 82896770,
        "amenity": "dentist",
        "healthcare": "dentist",
        "id": "node/7353054108"
      },
      "geometry": {
        "type": "Point",
        "coordinates": [
          -41.9086114,
          -22.7680927
        ]
      }
    },
    {
      "type": "Feature",
      "id": "node/7902668679",
      "properties": {
        "timestamp": "2020-09-13T14:59:38Z",
        "version": 1,
        "changeset": 90822213,
        "addr:housenumber": "4545",
        "addr:street": "Avenida José Bento Ribeiro Dantas",
        "amenity": "dentist",
        "healthcare": "dentist",
        "id": "node/7902668679"
      },
      "geometry": {
        "type": "Point",
        "coordinates": [
          -41.9177854,
          -22.7745193
        ]
      }
    },
    {
      "type": "Feature",
      "id": "node/7928743785",
      "properties": {
        "timestamp": "2020-09-21T16:47:35Z",
        "version": 1,
        "changeset": 91240967,
        "addr:street": "Avenida José Bento Ribeiro Dantas",
        "amenity": "dentist",
        "name": "Odontologia Aplicada",
        "id": "node/7928743785"
      },
      "geometry": {
        "type": "Point",
        "coordinates": [
          -41.9065419,
          -22.7680734
        ]
      }
    },
    {
      "type": "Feature",
      "id": "node/7939536585",
      "properties": {
        "timestamp": "2020-09-24T18:59:27Z",
        "version": 1,
        "changeset": 91462248,
        "amenity": "dentist",
        "name": "Flávio Amil Odontologia",
        "id": "node/7939536585"
      },
      "geometry": {
        "type": "Point",
        "coordinates": [
          -41.9139793,
          -22.7727968
        ]
      }
    },
    {
      "type": "Feature",
      "id": "node/8958907033",
      "properties": {
        "timestamp": "2021-07-29T05:47:51Z",
        "version": 1,
        "changeset": 108793952,
        "amenity": "dentist",
        "healthcare": "dentist",
        "id": "node/8958907033"
      },
      "geometry": {
        "type": "Point",
        "coordinates": [
          -41.8894042,
          -22.7570299
        ]
      }
    }
  ]
}
